$GPGSV,3,1,12,03,13,113,24,04,41,060,28,06,56,234,40,07,44,168,35,1*66
$GPGSV,3,2,12,09,73,047,34,11,42,296,27,16,09,063,23,30,18,191,33,1*68
$GPGSV,3,3,12,19,,,,20,23,302,,26,07,036,,29,,,,1*60
$GPGSV,1,1,01,,,,46,1*67
$GLGSV,2,1,08,74,28,042,20,66,37,285,22,82,14,337,17,75,34,108,43,1*70
$GLGSV,2,2,08,65,65,018,24,88,31,222,51,81,42,292,24,72,20,073,27,1*7D
$GAGSV,3,1,10,03,59,057,34,05,09,066,27,07,11,250,35,08,63,260,36,7*79
$GAGSV,3,2,10,13,54,272,38,15,37,191,45,25,14,091,34,26,16,322,23,7*78
$GAGSV,3,3,10,02,00,136,,24,11,040,,7*76
$GPGSV,2,1,06,03,13,113,,04,41,060,,06,56,234,,09,73,047,,8*63
$GPGSV,2,2,06,11,42,296,,30,18,191,,8*63
$GAGSV,2,1,08,03,59,057,,05,09,066,,07,11,250,,08,63,260,,1*76
$GAGSV,2,2,08,13,54,272,,15,37,191,,25,14,091,,26,16,322,,1*7A
$GPGGA,111720.00,4728.239931,N,00752.387470,E,1,07,0.6,426.4,M,48.0,M,,*64
$GAGGA,111720.00,4728.239931,N,00752.387470,E,1,06,0.6,426.4,M,48.0,M,,*74
$GNGNS,111720.00,4728.239931,N,00752.387470,E,AAAANN,24,0.6,426.4,48.0,,,V*2B
$GPVTG,,T,0.5,M,0.0,N,0.0,K,A*08
$GAVTG,,T,0.5,M,0.0,N,0.0,K,A*19
$GPRMC,111720.00,A,4728.239931,N,00752.387470,E,0.0,,061023,0.5,W,A,V*71
$GARMC,111720.00,A,4728.239931,N,00752.387470,E,0.0,,061023,0.5,W,A,V*60
$GPGSA,A,3,03,04,06,07,09,11,30,,,,,,0.9,0.6,0.7,1*2B
$GAGSA,A,3,03,07,08,13,15,25,,,,,,,0.9,0.6,0.7,3*39
$GNGSA,A,3,03,04,06,07,09,11,30,,,,,,0.9,0.6,0.7,1*35
$GNGSA,A,3,66,72,75,81,88,,,,,,,,0.9,0.6,0.7,2*34
$GNGSA,A,3,03,07,08,13,15,25,,,,,,,0.9,0.6,0.7,3*36
$GNGSA,A,3,19,20,22,29,35,37,,,,,,,0.9,0.6,0.7,4*3F
$GNGSA,A,3,,,,,,,,,,,,,0.9,0.6,0.7,5*3D
$GNGSA,A,3,,,,,,,,,,,,,0.9,0.6,0.7,6*3E
$GPGSV,3,1,12,03,13,113,24,04,41,060,28,06,56,234,39,07,44,168,38,1*65
$GPGSV,3,2,12,09,73,047,34,11,42,296,27,16,09,063,23,30,18,191,30,1*6B
$GPGSV,3,3,12,19,,,,20,23,302,,26,07,036,,29,,,,1*60
$GPGSV,1,1,01,,,,48,1*69
$GLGSV,2,1,08,74,28,042,20,66,37,285,22,82,14,337,17,75,34,108,42,1*71
$GLGSV,2,2,08,88,31,222,52,81,42,292,28,72,20,073,28,65,65,018,,1*7B
$GAGSV,3,1,10,03,59,057,34,05,09,066,26,07,11,250,38,08,63,260,34,7*77
$GAGSV,3,2,10,13,54,272,38,15,37,191,46,25,14,091,33,26,16,322,21,7*7E
$GAGSV,3,3,10,02,00,136,,24,11,040,,7*76
$GPGSV,2,1,06,03,13,113,,04,41,060,,06,56,234,,09,73,047,,8*63
$GPGSV,2,2,06,11,42,296,,30,18,191,,8*63
$GAGSV,2,1,08,03,59,057,,05,09,066,,07,11,250,,08,63,260,,1*76
$GAGSV,2,2,08,13,54,272,,15,37,191,,25,14,091,,26,16,322,,1*7A
$GPGGA,111721.00,4728.239931,N,00752.387470,E,1,07,0.6,426.4,M,48.0,M,,*65
$GAGGA,111721.00,4728.239931,N,00752.387470,E,1,06,0.6,426.4,M,48.0,M,,*75
$GNGNS,111721.00,4728.239931,N,00752.387470,E,AAAANN,24,0.6,426.4,48.0,,,V*2A
$GPVTG,,T,0.5,M,0.0,N,0.0,K,A*08
$GAVTG,,T,0.5,M,0.0,N,0.0,K,A*19
$GPRMC,111721.00,A,4728.239931,N,00752.387470,E,0.0,,061023,0.5,W,A,V*70
$GARMC,111721.00,A,4728.239931,N,00752.387470,E,0.0,,061023,0.5,W,A,V*61
$GPGSA,A,3,03,04,06,07,09,11,30,,,,,,0.9,0.6,0.7,1*2B
$GAGSA,A,3,03,07,08,13,15,25,,,,,,,0.9,0.6,0.7,3*39
$GNGSA,A,3,03,04,06,07,09,11,30,,,,,,0.9,0.6,0.7,1*35
$GNGSA,A,3,66,72,75,81,88,,,,,,,,0.9,0.6,0.7,2*34
$GNGSA,A,3,03,07,08,13,15,25,,,,,,,0.9,0.6,0.7,3*36
$GNGSA,A,3,19,20,22,29,35,37,,,,,,,0.9,0.6,0.7,4*3F
$GNGSA,A,3,,,,,,,,,,,,,0.9,0.6,0.7,5*3D
$GNGSA,A,3,,,,,,,,,,,,,0.9,0.6,0.7,6*3E
$GPGSV,3,1,12,03,13,113,25,04,41,060,28,06,56,234,37,07,44,168,38,1*6A
$GPGSV,3,2,12,09,73,047,35,11,42,296,27,16,09,063,22,30,18,191,31,1*6A
$GPGSV,3,3,12,19,,,,20,23,302,,26,07,036,,29,,,,1*60
$GPGSV,1,1,01,,,,48,1*69
$GLGSV,2,1,08,74,28,042,20,66,37,285,22,82,14,337,17,75,34,108,42,1*71
$GLGSV,2,2,08,65,65,018,25,88,31,222,52,81,42,292,30,72,20,073,27,1*7A
$GAGSV,3,1,10,03,59,057,34,05,09,066,27,07,11,250,40,08,63,260,34,7*79
$GAGSV,3,2,10,13,54,272,38,15,37,191,47,25,14,091,35,26,16,322,23,7*7B
$GAGSV,3,3,10,02,00,136,,24,11,040,,7*76
$GPGSV,2,1,06,03,13,113,,04,41,060,,06,56,234,,09,73,047,,8*63
$GPGSV,2,2,06,11,42,296,,30,18,191,,8*63
$GAGSV,2,1,08,03,59,057,,05,09,066,,07,11,250,,08,63,260,,1*76
$GAGSV,2,2,08,13,54,272,,15,37,191,,25,14,091,,26,16,322,,1*7A
$GPGGA,111722.00,4728.239931,N,00752.387470,E,1,07,0.6,426.4,M,48.0,M,,*66
$GAGGA,111722.00,4728.239931,N,00752.387470,E,1,06,0.6,426.4,M,48.0,M,,*76
$GNGNS,111722.00,4728.239931,N,00752.387470,E,AAAANN,24,0.6,426.4,48.0,,,V*29
$GPVTG,,T,0.5,M,0.0,N,0.0,K,A*08
$GAVTG,,T,0.5,M,0.0,N,0.0,K,A*19
$GPRMC,111722.00,A,4728.239931,N,00752.387470,E,0.0,,061023,0.5,W,A,V*73
$GARMC,111722.00,A,4728.239931,N,00752.387470,E,0.0,,061023,0.5,W,A,V*62
$GPGSA,A,3,03,04,06,07,09,11,30,,,,,,0.9,0.6,0.7,1*2B
$GAGSA,A,3,03,07,08,13,15,25,,,,,,,0.9,0.6,0.7,3*39
$GNGSA,A,3,03,04,06,07,09,11,30,,,,,,0.9,0.6,0.7,1*35
$GNGSA,A,3,66,72,75,81,88,,,,,,,,0.9,0.6,0.7,2*34
$GNGSA,A,3,03,07,08,13,15,25,,,,,,,0.9,0.6,0.7,3*36
$GNGSA,A,3,19,20,22,29,35,37,,,,,,,0.9,0.6,0.7,4*3F
$GNGSA,A,3,,,,,,,,,,,,,0.9,0.6,0.7,5*3D
$GNGSA,A,3,,,,,,,,,,,,,0.9,0.6,0.7,6*3E
$GPGSV,3,1,12,03,13,113,25,04,41,060,28,06,56,234,37,07,44,168,37,1*65
$GPGSV,3,2,12,09,73,047,35,11,42,296,28,16,09,063,24,30,18,191,32,1*60
$GPGSV,3,3,12,19,,,,20,23,302,,26,07,036,,29,,,,1*60
$GPGSV,1,1,01,,,,48,1*69
$GLGSV,2,1,08,74,28,042,20,66,37,285,19,82,14,337,16,75,34,108,42,1*78
$GLGSV,2,2,08,65,65,018,23,88,31,222,52,81,42,292,29,72,20,073,27,1*74
$GAGSV,3,1,10,03,59,057,35,05,09,066,26,07,11,250,39,08,63,260,34,7*77
$GAGSV,3,2,10,13,54,272,38,15,37,191,46,25,14,091,35,26,16,322,21,7*78
$GAGSV,3,3,10,02,00,136,,24,11,040,,7*76
$GPGSV,2,1,06,03,13,113,,04,41,060,,06,56,234,,09,73,047,,8*63
$GPGSV,2,2,06,11,42,296,,30,18,191,,8*63
$GAGSV,2,1,08,03,59,057,,05,09,066,,07,11,250,,08,63,260,,1*76
$GAGSV,2,2,08,13,54,272,,15,37,191,,25,14,091,,26,16,322,,1*7A
$GPGGA,111723.00,4728.239931,N,00752.387470,E,1,08,0.6,426.4,M,48.0,M,,*68
$GAGGA,111723.00,4728.239931,N,00752.387470,E,1,06,0.6,426.4,M,48.0,M,,*77
$GNGNS,111723.00,4728.239931,N,00752.387470,E,AAAANN,25,0.6,426.4,48.0,,,V*29
$GPVTG,,T,0.5,M,0.0,N,0.0,K,A*08
$GAVTG,,T,0.5,M,0.0,N,0.0,K,A*19
$GPRMC,111723.00,A,4728.239931,N,00752.387470,E,0.0,,061023,0.5,W,A,V*72
$GARMC,111723.00,A,4728.239931,N,00752.387470,E,0.0,,061023,0.5,W,A,V*63
$GPGSA,A,3,03,04,06,07,09,11,16,30,,,,,0.9,0.6,0.6,1*2D
$GAGSA,A,3,03,07,08,13,15,25,,,,,,,0.9,0.6,0.6,3*38
$GNGSA,A,3,03,04,06,07,09,11,16,30,,,,,0.9,0.6,0.6,1*33
$GNGSA,A,3,66,72,75,81,88,,,,,,,,0.9,0.6,0.6,2*35
$GNGSA,A,3,03,07,08,13,15,25,,,,,,,0.9,0.6,0.6,3*37
$GNGSA,A,3,19,20,22,29,35,37,,,,,,,0.9,0.6,0.6,4*3E
$GNGSA,A,3,,,,,,,,,,,,,0.9,0.6,0.6,5*3C
$GNGSA,A,3,,,,,,,,,,,,,0.9,0.6,0.6,6*3F
$GPGSV,3,1,12,03,13,113,25,04,41,060,28,06,56,234,37,07,44,168,35,1*67
$GPGSV,3,2,12,09,73,047,35,11,42,296,27,16,09,063,22,30,18,191,33,1*68
$GPGSV,3,3,12,19,,,,20,23,302,,26,07,036,,29,,,,1*60
$GPGSV,1,1,01,,,,48,1*69
$GLGSV,2,1,08,74,28,042,20,66,37,285,19,82,14,337,16,75,34,108,43,1*79
$GLGSV,2,2,08,88,31,222,53,81,42,292,28,72,20,073,30,65,65,018,,1*73
$GAGSV,3,1,10,03,59,057,35,05,09,066,26,07,11,250,41,08,63,260,35,7*79
$GAGSV,3,2,10,13,54,272,38,15,37,191,47,25,14,091,34,26,16,322,23,7*7A
$GAGSV,3,3,10,02,00,136,,24,11,040,,7*76
$GPGSV,2,1,06,03,13,113,,04,41,060,,06,56,234,,09,73,047,,8*63
$GPGSV,2,2,06,11,42,296,,30,18,191,,8*63
$GAGSV,2,1,08,03,59,057,,05,09,066,,07,11,250,,08,63,260,,1*76
$GAGSV,2,2,08,13,54,272,,15,37,191,,25,14,091,,26,16,322,,1*7A
$GPGGA,111724.00,4728.239931,N,00752.387470,E,1,08,0.6,426.4,M,48.0,M,,*6F
$GAGGA,111724.00,4728.239931,N,00752.387470,E,1,06,0.6,426.4,M,48.0,M,,*70
$GNGNS,111724.00,4728.239931,N,00752.387470,E,AAAANN,24,0.6,426.4,48.0,,,V*2F
$GPVTG,,T,0.5,M,0.0,N,0.0,K,A*08
$GAVTG,,T,0.5,M,0.0,N,0.0,K,A*19
$GPRMC,111724.00,A,4728.239931,N,00752.387470,E,0.0,,061023,0.5,W,A,V*75
$GARMC,111724.00,A,4728.239931,N,00752.387470,E,0.0,,061023,0.5,W,A,V*64
$GPGSA,A,3,03,04,06,07,09,11,16,30,,,,,0.9,0.6,0.6,1*2D
$GAGSA,A,3,03,07,08,13,15,25,,,,,,,0.9,0.6,0.6,3*38
$GNGSA,A,3,03,04,06,07,09,11,16,30,,,,,0.9,0.6,0.6,1*33
$GNGSA,A,3,72,75,81,88,,,,,,,,,0.9,0.6,0.6,2*35
$GNGSA,A,3,03,07,08,13,15,25,,,,,,,0.9,0.6,0.6,3*37
$GNGSA,A,3,19,20,22,29,35,37,,,,,,,0.9,0.6,0.6,4*3E
$GNGSA,A,3,,,,,,,,,,,,,0.9,0.6,0.6,5*3C
$GNGSA,A,3,,,,,,,,,,,,,0.9,0.6,0.6,6*3F
$GPGSV,3,1,12,03,13,113,25,04,41,060,27,06,56,234,38,07,44,168,33,1*61
$GPGSV,3,2,12,09,73,047,34,11,42,296,26,16,09,063,22,30,18,191,33,1*68
$GPGSV,3,3,12,19,,,,20,23,302,,26,07,036,,29,,,,1*60
$GPGSV,1,1,01,,,,47,1*66
$GLGSV,2,1,08,74,28,042,19,66,37,285,19,82,14,337,16,75,34,108,43,1*73
$GLGSV,2,2,08,88,31,222,52,81,42,292,31,72,20,073,29,65,65,018,,1*72
$GAGSV,3,1,10,03,59,057,34,05,09,066,26,07,11,250,41,08,63,260,35,7*78
$GAGSV,3,2,10,13,54,272,38,15,37,191,46,25,14,091,34,26,16,322,24,7*7C
$GAGSV,3,3,10,02,00,136,,24,11,040,,7*76
$GPGSV,2,1,06,03,13,113,,04,41,060,,06,56,234,,09,73,047,,8*63
$GPGSV,2,2,06,11,42,296,,30,18,191,,8*63
$GAGSV,2,1,08,03,59,057,,05,09,066,,07,11,250,,08,63,260,,1*76
$GAGSV,2,2,08,13,54,272,,15,37,191,,25,14,091,,26,16,322,,1*7A
$GPGGA,111725.00,4728.239931,N,00752.387470,E,1,08,0.6,426.4,M,48.0,M,,*6E
$GAGGA,111725.00,4728.239931,N,00752.387470,E,1,06,0.6,426.4,M,48.0,M,,*71
$GNGNS,111725.00,4728.239931,N,00752.387470,E,AAAANN,24,0.6,426.4,48.0,,,V*2E
$GPVTG,,T,0.5,M,0.0,N,0.0,K,A*08
$GAVTG,,T,0.5,M,0.0,N,0.0,K,A*19
$GPRMC,111725.00,A,4728.239931,N,00752.387470,E,0.0,,061023,0.5,W,A,V*74
$GARMC,111725.00,A,4728.239931,N,00752.387470,E,0.0,,061023,0.5,W,A,V*65
$GPGSA,A,3,03,04,06,07,09,11,16,30,,,,,0.9,0.6,0.6,1*2D
$GAGSA,A,3,03,07,08,13,15,25,,,,,,,0.9,0.6,0.6,3*38
$GNGSA,A,3,03,04,06,07,09,11,16,30,,,,,0.9,0.6,0.6,1*33
$GNGSA,A,3,72,75,81,88,,,,,,,,,0.9,0.6,0.6,2*35
$GNGSA,A,3,03,07,08,13,15,25,,,,,,,0.9,0.6,0.6,3*37
$GNGSA,A,3,19,20,22,29,35,37,,,,,,,0.9,0.6,0.6,4*3E
$GNGSA,A,3,,,,,,,,,,,,,0.9,0.6,0.6,5*3C
$GNGSA,A,3,,,,,,,,,,,,,0.9,0.6,0.6,6*3F
$GPGSV,3,1,12,03,13,113,26,04,41,060,28,06,56,234,38,07,44,168,34,1*6A
$GPGSV,3,2,12,09,73,047,34,11,42,296,26,16,09,063,22,30,18,191,33,1*68
$GPGSV,3,3,12,19,,,,20,23,302,,26,07,036,,29,,,,1*60
$GPGSV,1,1,01,,,,47,1*66
$GLGSV,2,1,08,74,28,042,19,66,37,285,19,82,14,337,19,75,34,108,43,1*7C
$GLGSV,2,2,08,88,31,222,53,81,42,292,33,72,20,073,29,65,65,018,,1*71
$GAGSV,3,1,10,03,59,057,34,05,09,066,24,07,11,250,41,08,63,260,36,7*79
$GAGSV,3,2,10,13,54,272,39,15,37,191,46,25,14,091,34,26,16,322,20,7*79
$GAGSV,3,3,10,02,00,136,,24,11,040,,7*76
$GPGSV,2,1,06,03,13,113,,04,41,060,,06,56,234,,09,73,047,,8*63
$GPGSV,2,2,06,11,42,296,,30,18,191,,8*63
$GAGSV,2,1,08,03,59,057,,05,09,066,,07,11,250,,08,63,260,,1*76
$GAGSV,2,2,08,13,54,272,,15,37,191,,25,14,091,,26,16,322,,1*7A
$GPGGA,111726.00,4728.239931,N,00752.387471,E,1,08,0.6,426.4,M,48.0,M,,*6C
$GAGGA,111726.00,4728.239931,N,00752.387471,E,1,06,0.6,426.4,M,48.0,M,,*73
$GNGNS,111726.00,4728.239931,N,00752.387471,E,AAAANN,24,0.6,426.4,48.0,,,V*2C
$GPVTG,,T,0.5,M,0.0,N,0.0,K,A*08
$GAVTG,,T,0.5,M,0.0,N,0.0,K,A*19
$GPRMC,111726.00,A,4728.239931,N,00752.387471,E,0.0,,061023,0.5,W,A,V*76
$GARMC,111726.00,A,4728.239931,N,00752.387471,E,0.0,,061023,0.5,W,A,V*67
$GPGSA,A,3,03,04,06,07,09,11,16,30,,,,,0.9,0.6,0.6,1*2D
$GAGSA,A,3,03,07,08,13,15,25,,,,,,,0.9,0.6,0.6,3*38
$GNGSA,A,3,03,04,06,07,09,11,16,30,,,,,0.9,0.6,0.6,1*33
$GNGSA,A,3,72,75,81,88,,,,,,,,,0.9,0.6,0.6,2*35
$GNGSA,A,3,03,07,08,13,15,25,,,,,,,0.9,0.6,0.6,3*37
$GNGSA,A,3,19,20,22,29,35,37,,,,,,,0.9,0.6,0.6,4*3E
$GNGSA,A,3,,,,,,,,,,,,,0.9,0.6,0.6,5*3C
$GNGSA,A,3,,,,,,,,,,,,,0.9,0.6,0.6,6*3F
$GPGSV,3,1,12,03,13,113,27,04,41,060,27,06,56,234,38,07,44,168,35,1*65
$GPGSV,3,2,12,09,73,047,34,11,42,296,26,16,09,063,23,30,18,191,32,1*68
$GPGSV,3,3,12,19,,,,20,23,302,,26,07,036,,29,,,,1*60
$GPGSV,1,1,01,,,,47,1*66
$GLGSV,2,1,08,74,28,042,19,66,37,285,22,82,14,337,19,75,34,108,43,1*74
$GLGSV,2,2,08,88,31,222,53,81,42,292,33,72,20,073,29,65,65,018,,1*71
$GAGSV,3,1,10,03,59,057,35,05,09,066,27,07,11,250,41,08,63,260,36,7*7B
$GAGSV,3,2,10,13,54,272,38,15,37,191,46,25,14,091,34,26,16,322,22,7*7A
$GAGSV,3,3,10,02,00,136,,24,11,040,,7*76
$GPGSV,2,1,06,03,13,113,,04,41,060,,06,56,234,,09,73,047,,8*63
$GPGSV,2,2,06,11,42,296,,30,18,191,,8*63
$GAGSV,2,1,08,03,59,057,,05,09,066,,07,11,250,,08,63,260,,1*76
$GAGSV,2,2,08,13,54,272,,15,37,191,,25,14,091,,26,16,322,,1*7A
$GPGGA,111727.00,4728.239931,N,00752.387471,E,1,08,0.6,426.4,M,48.0,M,,*6D
$GAGGA,111727.00,4728.239931,N,00752.387471,E,1,06,0.6,426.4,M,48.0,M,,*72
$GNGNS,111727.00,4728.239931,N,00752.387471,E,AAAANN,24,0.6,426.4,48.0,,,V*2D
$GPVTG,,T,0.5,M,0.0,N,0.0,K,A*08
$GAVTG,,T,0.5,M,0.0,N,0.0,K,A*19
$GPRMC,111727.00,A,4728.239931,N,00752.387471,E,0.0,,061023,0.5,W,A,V*77
$GARMC,111727.00,A,4728.239931,N,00752.387471,E,0.0,,061023,0.5,W,A,V*66
$GPGSA,A,3,03,04,06,07,09,11,16,30,,,,,0.9,0.6,0.6,1*2D
$GAGSA,A,3,03,07,08,13,15,25,,,,,,,0.9,0.6,0.6,3*38
$GNGSA,A,3,03,04,06,07,09,11,16,30,,,,,0.9,0.6,0.6,1*33
$GNGSA,A,3,72,75,81,88,,,,,,,,,0.9,0.6,0.6,2*35
$GNGSA,A,3,03,07,08,13,15,25,,,,,,,0.9,0.6,0.6,3*37
$GNGSA,A,3,19,20,22,29,35,37,,,,,,,0.9,0.6,0.6,4*3E
$GNGSA,A,3,,,,,,,,,,,,,0.9,0.6,0.6,5*3C
$GNGSA,A,3,,,,,,,,,,,,,0.9,0.6,0.6,6*3F
$GPGSV,3,1,12,03,13,113,27,04,41,060,27,06,56,234,37,07,44,168,35,1*6A
$GPGSV,3,2,12,09,73,047,33,11,42,296,27,16,09,063,23,30,18,191,32,1*6E
$GPGSV,3,3,12,19,,,,20,23,302,,26,07,036,,29,,,,1*60
$GPGSV,1,1,01,,,,47,1*66
$GLGSV,2,1,08,74,28,042,19,66,37,285,22,82,14,337,22,75,34,108,42,1*7D
$GLGSV,2,2,08,88,31,222,53,81,42,292,32,72,20,073,29,65,65,018,,1*70
$GAGSV,3,1,10,03,59,057,34,05,09,066,27,07,11,250,41,08,63,260,36,7*7A
$GAGSV,3,2,10,13,54,272,38,15,37,191,46,25,14,091,34,26,16,322,22,7*7A
$GAGSV,3,3,10,02,00,136,,24,11,040,,7*76
$GPGSV,2,1,06,03,13,113,,04,41,060,,06,56,234,,09,73,047,,8*63
$GPGSV,2,2,06,11,42,296,,30,18,191,,8*63
$GAGSV,2,1,08,03,59,057,,05,09,066,,07,11,250,,08,63,260,,1*76
$GAGSV,2,2,08,13,54,272,,15,37,191,,25,14,091,,26,16,322,,1*7A
$GPGGA,111728.00,4728.239931,N,00752.387472,E,1,08,0.6,426.4,M,48.0,M,,*61
$GAGGA,111728.00,4728.239931,N,00752.387472,E,1,06,0.6,426.4,M,48.0,M,,*7E
$GNGNS,111728.00,4728.239931,N,00752.387472,E,AAAANN,24,0.6,426.4,48.0,,,V*21
$GPVTG,,T,0.5,M,0.0,N,0.0,K,A*08
$GAVTG,,T,0.5,M,0.0,N,0.0,K,A*19
$GPRMC,111728.00,A,4728.239931,N,00752.387472,E,0.0,,061023,0.5,W,A,V*7B
$GARMC,111728.00,A,4728.239931,N,00752.387472,E,0.0,,061023,0.5,W,A,V*6A
$GPGSA,A,3,03,04,06,07,09,11,16,30,,,,,0.9,0.6,0.6,1*2D
$GAGSA,A,3,03,07,08,13,15,25,,,,,,,0.9,0.6,0.6,3*38
$GNGSA,A,3,03,04,06,07,09,11,16,30,,,,,0.9,0.6,0.6,1*33
$GNGSA,A,3,72,75,81,88,,,,,,,,,0.9,0.6,0.6,2*35
$GNGSA,A,3,03,07,08,13,15,25,,,,,,,0.9,0.6,0.6,3*37
$GNGSA,A,3,19,20,22,29,35,37,,,,,,,0.9,0.6,0.6,4*3E
$GNGSA,A,3,,,,,,,,,,,,,0.9,0.6,0.6,5*3C
$GNGSA,A,3,,,,,,,,,,,,,0.9,0.6,0.6,6*3F
$GPGSV,3,1,12,03,13,113,27,04,41,060,26,06,56,234,38,07,44,168,35,1*64
$GPGSV,3,2,12,09,73,047,33,11,42,296,29,16,09,063,23,30,18,191,31,1*63
$GPGSV,3,3,12,19,,,,20,23,302,,26,07,036,,29,,,,1*60
$GPGSV,1,1,01,,,,47,1*66
$GLGSV,2,1,08,74,28,042,19,66,37,285,22,82,14,337,22,75,34,108,42,1*7D
$GLGSV,2,2,08,88,31,222,53,81,42,292,33,72,20,073,29,65,65,018,,1*71
$GAGSV,3,1,10,03,59,057,35,05,09,066,27,07,11,250,41,08,63,260,36,7*7B
$GAGSV,3,2,10,13,54,272,38,15,37,191,46,25,14,091,34,26,16,322,23,7*7B
$GAGSV,3,3,10,02,00,136,,24,11,040,,7*76
$GPGSV,2,1,06,03,13,113,,04,41,060,,06,56,234,,09,73,047,,8*63
$GPGSV,2,2,06,11,42,296,,30,18,191,,8*63
$GAGSV,2,1,08,03,59,057,,05,09,066,,07,11,250,,08,63,260,,1*76
$GAGSV,2,2,08,13,54,272,,15,37,191,,25,14,091,,26,16,322,,1*7A
$GPGGA,111729.00,4728.239931,N,00752.387473,E,1,07,0.7,426.4,M,48.0,M,,*6F
$GAGGA,111729.00,4728.239931,N,00752.387473,E,1,06,0.7,426.4,M,48.0,M,,*7F
$GNGNS,111729.00,4728.239931,N,00752.387473,E,AAAANN,23,0.7,426.4,48.0,,,V*27
$GPVTG,,T,0.5,M,0.0,N,0.0,K,A*08
$GAVTG,,T,0.5,M,0.0,N,0.0,K,A*19
$GPRMC,111729.00,A,4728.239931,N,00752.387473,E,0.0,,061023,0.5,W,A,V*7B
$GARMC,111729.00,A,4728.239931,N,00752.387473,E,0.0,,061023,0.5,W,A,V*6A
$GPGSA,A,3,03,04,06,07,09,11,30,,,,,,0.9,0.7,0.7,1*2A
$GAGSA,A,3,03,07,08,13,15,25,,,,,,,0.9,0.7,0.7,3*38
$GNGSA,A,3,03,04,06,07,09,11,30,,,,,,0.9,0.7,0.7,1*34
$GNGSA,A,3,72,75,81,88,,,,,,,,,0.9,0.7,0.7,2*35
$GNGSA,A,3,03,07,08,13,15,25,,,,,,,0.9,0.7,0.7,3*37
$GNGSA,A,3,19,20,22,29,35,37,,,,,,,0.9,0.7,0.7,4*3E
$GNGSA,A,3,,,,,,,,,,,,,0.9,0.7,0.7,5*3C
$GNGSA,A,3,,,,,,,,,,,,,0.9,0.7,0.7,6*3F
$GPGSV,3,1,12,03,13,113,28,04,41,060,27,06,56,234,37,07,44,168,36,1*66
$GPGSV,3,2,12,09,73,047,34,11,42,296,30,16,09,063,24,30,18,191,31,1*6B
$GPGSV,3,3,12,19,,,,20,23,302,,26,07,036,,29,,,,1*60
$GPGSV,1,1,01,,,,48,1*69
$GLGSV,2,1,08,74,28,042,19,66,37,285,22,82,14,337,22,75,34,108,43,1*7C
$GLGSV,2,2,08,88,31,222,53,81,42,292,31,72,20,073,29,65,65,018,,1*73
$GAGSV,3,1,10,03,59,057,36,05,09,066,28,07,11,250,40,08,63,260,36,7*76
$GAGSV,3,2,10,13,54,272,37,15,37,191,47,25,14,091,35,26,16,322,23,7*74
$GAGSV,3,3,10,02,00,136,,24,11,040,,7*76
$GPGSV,2,1,06,03,13,113,,04,41,060,,06,56,234,,09,73,047,,8*63
$GPGSV,2,2,06,11,42,296,,30,18,191,,8*63
$GAGSV,2,1,08,03,59,057,,05,09,066,,07,11,250,,08,63,260,,1*76
$GAGSV,2,2,08,13,54,272,,15,37,191,,25,14,091,,26,16,322,,1*7A
$GPGGA,111730.00,4728.239932,N,00752.387473,E,1,07,0.7,426.4,M,48.0,M,,*64
$GAGGA,111730.00,4728.239932,N,00752.387473,E,1,06,0.7,426.4,M,48.0,M,,*74
$GNGNS,111730.00,4728.239932,N,00752.387473,E,AAAANN,23,0.7,426.4,48.0,,,V*2C
$GPVTG,,T,0.5,M,0.0,N,0.0,K,A*08
$GAVTG,,T,0.5,M,0.0,N,0.0,K,A*19
$GPRMC,111730.00,A,4728.239932,N,00752.387473,E,0.0,,061023,0.5,W,A,V*70
$GARMC,111730.00,A,4728.239932,N,00752.387473,E,0.0,,061023,0.5,W,A,V*61
$GPGSA,A,3,03,04,06,07,09,11,30,,,,,,0.9,0.7,0.7,1*2A
$GAGSA,A,3,03,07,08,13,15,25,,,,,,,0.9,0.7,0.7,3*38
$GNGSA,A,3,03,04,06,07,09,11,30,,,,,,0.9,0.7,0.7,1*34
$GNGSA,A,3,72,75,81,88,,,,,,,,,0.9,0.7,0.7,2*35
$GNGSA,A,3,03,07,08,13,15,25,,,,,,,0.9,0.7,0.7,3*37
$GNGSA,A,3,19,20,22,29,35,37,,,,,,,0.9,0.7,0.7,4*3E
$GNGSA,A,3,,,,,,,,,,,,,0.9,0.7,0.7,5*3C
$GNGSA,A,3,,,,,,,,,,,,,0.9,0.7,0.7,6*3F
$GPGSV,3,1,12,03,13,113,25,04,41,060,28,06,56,234,39,07,44,168,35,1*69
$GPGSV,3,2,12,09,73,047,33,11,42,296,30,16,09,063,24,30,18,191,31,1*6C
$GPGSV,3,3,12,19,,,,20,23,302,,26,07,036,,29,,,,1*60
$GPGSV,1,1,01,,,,47,1*66
$GLGSV,2,1,08,74,28,042,19,66,37,285,24,82,14,337,24,75,34,108,43,1*7C
$GLGSV,2,2,08,88,31,222,51,81,42,292,31,72,20,073,27,65,65,018,,1*7F
$GAGSV,3,1,10,03,59,057,35,05,09,066,26,07,11,250,40,08,63,260,35,7*78
$GAGSV,3,2,10,13,54,272,37,15,37,191,46,25,14,091,33,26,16,322,22,7*72
$GAGSV,3,3,10,02,00,136,,24,11,040,,7*76
$GPGSV,2,1,06,03,13,113,,04,41,060,,06,56,234,,09,73,047,,8*63
$GPGSV,2,2,06,11,42,296,,30,18,191,,8*63
$GAGSV,2,1,08,03,59,057,,05,09,066,,07,11,250,,08,63,260,,1*76
$GAGSV,2,2,08,13,54,272,,15,37,191,,25,14,091,,26,16,322,,1*7A
$GPGGA,111731.00,4728.239932,N,00752.387473,E,1,07,0.7,426.4,M,48.0,M,,*65
$GAGGA,111731.00,4728.239932,N,00752.387473,E,1,06,0.7,426.4,M,48.0,M,,*75
$GNGNS,111731.00,4728.239932,N,00752.387473,E,AAAANN,23,0.7,426.4,48.0,,,V*2D
$GPVTG,,T,0.5,M,0.0,N,0.0,K,A*08
$GAVTG,,T,0.5,M,0.0,N,0.0,K,A*19
$GPRMC,111731.00,A,4728.239932,N,00752.387473,E,0.0,,061023,0.5,W,A,V*71
$GARMC,111731.00,A,4728.239932,N,00752.387473,E,0.0,,061023,0.5,W,A,V*60
$GPGSA,A,3,03,04,06,07,09,11,30,,,,,,0.9,0.7,0.7,1*2A
$GAGSA,A,3,03,07,08,13,15,25,,,,,,,0.9,0.7,0.7,3*38
$GNGSA,A,3,03,04,06,07,09,11,30,,,,,,0.9,0.7,0.7,1*34
$GNGSA,A,3,72,75,81,88,,,,,,,,,0.9,0.7,0.7,2*35
$GNGSA,A,3,03,07,08,13,15,25,,,,,,,0.9,0.7,0.7,3*37
$GNGSA,A,3,19,20,22,29,35,37,,,,,,,0.9,0.7,0.7,4*3E
$GNGSA,A,3,,,,,,,,,,,,,0.9,0.7,0.7,5*3C
$GNGSA,A,3,,,,,,,,,,,,,0.9,0.7,0.7,6*3F
$GPGSV,3,1,12,03,13,113,28,04,41,060,28,06,56,234,37,07,44,168,36,1*69
$GPGSV,3,2,12,09,73,047,33,11,42,296,31,16,09,063,24,30,18,191,32,1*6E
$GPGSV,3,3,12,19,,,,20,23,302,,26,07,036,,29,,,,1*60
$GPGSV,1,1,01,,,,46,1*67
$GLGSV,2,1,08,74,28,042,20,66,37,285,22,82,14,337,22,75,34,108,42,1*77
$GLGSV,2,2,08,65,65,018,22,88,31,222,51,81,42,292,31,72,20,073,27,1*7F
$GAGSV,3,1,10,03,59,057,35,05,09,066,26,07,11,250,40,08,63,260,36,7*7B
$GAGSV,3,2,10,13,54,272,38,15,37,191,46,25,14,091,33,26,16,322,22,7*7D
$GAGSV,3,3,10,02,00,136,,24,11,040,,7*76
$GPGSV,2,1,06,03,13,113,,04,41,060,,06,56,234,,09,73,047,,8*63
$GPGSV,2,2,06,11,42,296,,30,18,191,,8*63
$GAGSV,2,1,08,03,59,057,,05,09,066,,07,11,250,,08,63,260,,1*76
$GAGSV,2,2,08,13,54,272,,15,37,191,,25,14,091,,26,16,322,,1*7A
$GPGGA,111732.00,4728.239933,N,00752.387473,E,1,08,0.6,426.4,M,48.0,M,,*69
$GAGGA,111732.00,4728.239933,N,00752.387473,E,1,06,0.6,426.4,M,48.0,M,,*76
$GNGNS,111732.00,4728.239933,N,00752.387473,E,AAAANN,24,0.6,426.4,48.0,,,V*29
$GPVTG,,T,0.5,M,0.0,N,0.0,K,A*08
$GAVTG,,T,0.5,M,0.0,N,0.0,K,A*19
$GPRMC,111732.00,A,4728.239933,N,00752.387473,E,0.0,,061023,0.5,W,A,V*73
$GARMC,111732.00,A,4728.239933,N,00752.387473,E,0.0,,061023,0.5,W,A,V*62
$GPGSA,A,3,03,04,06,07,09,11,16,30,,,,,0.9,0.6,0.6,1*2D
$GAGSA,A,3,03,07,08,13,15,25,,,,,,,0.9,0.6,0.6,3*38
$GNGSA,A,3,03,04,06,07,09,11,16,30,,,,,0.9,0.6,0.6,1*33
$GNGSA,A,3,72,75,81,88,,,,,,,,,0.9,0.6,0.6,2*35
$GNGSA,A,3,03,07,08,13,15,25,,,,,,,0.9,0.6,0.6,3*37
$GNGSA,A,3,19,20,22,29,35,37,,,,,,,0.9,0.6,0.6,4*3E
$GNGSA,A,3,,,,,,,,,,,,,0.9,0.6,0.6,5*3C
$GNGSA,A,3,,,,,,,,,,,,,0.9,0.6,0.6,6*3F
$GPGSV,3,1,12,03,13,113,27,04,41,060,29,06,56,234,38,07,44,168,35,1*6B
$GPGSV,3,2,12,09,73,047,31,11,42,296,29,16,09,063,23,20,23,302,23,1*63
$GPGSV,3,3,12,30,18,191,31,19,,,,26,07,036,,29,,,,1*63
$GPGSV,1,1,01,,,,46,1*67
$GLGSV,2,1,08,74,28,042,22,66,37,285,22,82,14,337,23,75,34,108,42,1*74
$GLGSV,2,2,08,88,31,222,51,81,42,292,30,72,20,073,27,65,65,018,,1*7E
$GAGSV,3,1,10,03,59,057,36,05,09,066,27,07,11,250,40,08,63,260,35,7*7A
$GAGSV,3,2,10,13,54,272,37,15,37,191,46,25,14,091,34,26,16,322,21,7*76
$GAGSV,3,3,10,02,00,136,,24,11,040,,7*76
$GPGSV,2,1,06,03,13,113,,04,41,060,,06,56,234,,09,73,047,,8*63
$GPGSV,2,2,06,11,42,296,,30,18,191,,8*63
$GAGSV,2,1,08,03,59,057,,05,09,066,,07,11,250,,08,63,260,,1*76
$GAGSV,2,2,08,13,54,272,,15,37,191,,25,14,091,,26,16,322,,1*7A
$GPGGA,111733.00,4728.239933,N,00752.387474,E,1,08,0.6,426.4,M,48.0,M,,*6F
$GAGGA,111733.00,4728.239933,N,00752.387474,E,1,06,0.6,426.4,M,48.0,M,,*70
$GNGNS,111733.00,4728.239933,N,00752.387474,E,AAAANN,24,0.6,426.4,48.0,,,V*2F
$GPVTG,,T,0.5,M,0.0,N,0.0,K,A*08
$GAVTG,,T,0.5,M,0.0,N,0.0,K,A*19
$GPRMC,111733.00,A,4728.239933,N,00752.387474,E,0.0,,061023,0.5,W,A,V*75
$GARMC,111733.00,A,4728.239933,N,00752.387474,E,0.0,,061023,0.5,W,A,V*64
$GPGSA,A,3,03,04,06,07,09,11,16,30,,,,,0.9,0.6,0.6,1*2D
$GAGSA,A,3,03,07,08,13,15,25,,,,,,,0.9,0.6,0.6,3*38
$GNGSA,A,3,03,04,06,07,09,11,16,30,,,,,0.9,0.6,0.6,1*33
$GNGSA,A,3,72,75,81,88,,,,,,,,,0.9,0.6,0.6,2*35
$GNGSA,A,3,03,07,08,13,15,25,,,,,,,0.9,0.6,0.6,3*37
$GNGSA,A,3,19,20,22,29,35,37,,,,,,,0.9,0.6,0.6,4*3E
$GNGSA,A,3,,,,,,,,,,,,,0.9,0.6,0.6,5*3C
$GNGSA,A,3,,,,,,,,,,,,,0.9,0.6,0.6,6*3F
$GPGSV,3,1,12,03,13,113,29,04,41,060,29,06,56,234,36,07,44,168,36,1*68
$GPGSV,3,2,12,09,73,047,32,11,42,296,28,16,09,063,23,20,23,302,22,1*60
$GPGSV,3,3,12,30,18,191,32,19,,,,26,07,036,,29,,,,1*60
$GPGSV,1,1,01,,,,46,1*67
$GLGSV,2,1,08,74,28,042,22,66,37,285,22,82,14,337,22,75,34,108,42,1*75
$GLGSV,2,2,08,88,31,222,51,81,42,292,31,72,20,073,28,65,65,018,,1*70
$GAGSV,3,1,10,03,59,057,35,05,09,066,27,07,11,250,40,08,63,260,34,7*78
$GAGSV,3,2,10,13,54,272,37,15,37,191,47,25,14,091,34,26,16,322,23,7*75
$GAGSV,3,3,10,02,00,136,,24,11,040,,7*76
$GPGSV,2,1,06,03,13,113,,04,41,060,,06,56,234,,09,73,047,,8*63
$GPGSV,2,2,06,11,42,296,,30,18,191,,8*63
$GAGSV,2,1,08,03,59,057,,05,09,066,,07,11,250,,08,63,260,,1*76
$GAGSV,2,2,08,13,54,272,,15,37,191,,25,14,091,,26,16,322,,1*7A
$GPGGA,111734.00,4728.239934,N,00752.387475,E,1,08,0.6,426.4,M,48.0,M,,*6E
$GAGGA,111734.00,4728.239934,N,00752.387475,E,1,06,0.6,426.4,M,48.0,M,,*71
$GNGNS,111734.00,4728.239934,N,00752.387475,E,AAAANN,24,0.6,426.4,48.0,,,V*2E
$GPVTG,,T,0.5,M,0.0,N,0.0,K,A*08
$GAVTG,,T,0.5,M,0.0,N,0.0,K,A*19
$GPRMC,111734.00,A,4728.239934,N,00752.387475,E,0.0,,061023,0.5,W,A,V*74
$GARMC,111734.00,A,4728.239934,N,00752.387475,E,0.0,,061023,0.5,W,A,V*65
$GPGSA,A,3,03,04,06,07,09,11,16,30,,,,,0.9,0.6,0.6,1*2D
$GAGSA,A,3,03,07,08,13,15,25,,,,,,,0.9,0.6,0.6,3*38
$GNGSA,A,3,03,04,06,07,09,11,16,30,,,,,0.9,0.6,0.6,1*33
$GNGSA,A,3,72,75,81,88,,,,,,,,,0.9,0.6,0.6,2*35
$GNGSA,A,3,03,07,08,13,15,25,,,,,,,0.9,0.6,0.6,3*37
$GNGSA,A,3,19,20,22,29,35,37,,,,,,,0.9,0.6,0.6,4*3E
$GNGSA,A,3,,,,,,,,,,,,,0.9,0.6,0.6,5*3C
$GNGSA,A,3,,,,,,,,,,,,,0.9,0.6,0.6,6*3F
$GPGSV,3,1,12,03,13,113,29,04,41,060,29,06,56,234,36,07,44,168,37,1*69
$GPGSV,3,2,12,09,73,047,31,11,42,296,29,16,09,063,22,20,23,302,23,1*62
$GPGSV,3,3,12,30,18,191,30,19,,,,26,07,036,,29,,,,1*62
$GPGSV,1,1,01,,,,47,1*66
$GLGSV,2,1,08,74,28,042,22,66,37,285,22,82,14,337,22,75,34,108,42,1*75
$GLGSV,2,2,08,88,31,222,51,81,42,292,31,72,20,073,27,65,65,019,,1*7E
$GAGSV,3,1,10,03,59,057,35,05,09,066,26,07,11,250,41,08,63,260,34,7*78
$GAGSV,3,2,10,13,54,272,36,15,37,191,46,25,14,091,34,26,16,322,22,7*74
$GAGSV,3,3,10,02,00,136,,24,11,040,,7*76
$GPGSV,2,1,06,03,13,113,,04,41,060,,06,56,234,,09,73,047,,8*63
$GPGSV,2,2,06,11,42,296,,30,18,191,,8*63
$GAGSV,2,1,08,03,59,057,,05,09,066,,07,11,250,,08,63,260,,1*76
$GAGSV,2,2,08,13,54,272,,15,37,191,,25,14,091,,26,16,322,,1*7A
$GPGGA,111735.00,4728.239934,N,00752.387475,E,1,08,0.6,426.4,M,48.0,M,,*6F
$GAGGA,111735.00,4728.239934,N,00752.387475,E,1,06,0.6,426.4,M,48.0,M,,*70
$GNGNS,111735.00,4728.239934,N,00752.387475,E,AAAANN,24,0.6,426.4,48.0,,,V*2F
$GPVTG,,T,0.5,M,0.0,N,0.0,K,A*08
$GAVTG,,T,0.5,M,0.0,N,0.0,K,A*19
$GPRMC,111735.00,A,4728.239934,N,00752.387475,E,0.0,,061023,0.5,W,A,V*75
$GARMC,111735.00,A,4728.239934,N,00752.387475,E,0.0,,061023,0.5,W,A,V*64
$GPGSA,A,3,03,04,06,07,09,11,16,30,,,,,0.9,0.6,0.6,1*2D
$GAGSA,A,3,03,07,08,13,15,25,,,,,,,0.9,0.6,0.6,3*38
$GNGSA,A,3,03,04,06,07,09,11,16,30,,,,,0.9,0.6,0.6,1*33
$GNGSA,A,3,72,75,81,88,,,,,,,,,0.9,0.6,0.6,2*35
$GNGSA,A,3,03,07,08,13,15,25,,,,,,,0.9,0.6,0.6,3*37
$GNGSA,A,3,19,20,22,29,35,37,,,,,,,0.9,0.6,0.6,4*3E
$GNGSA,A,3,,,,,,,,,,,,,0.9,0.6,0.6,5*3C
$GNGSA,A,3,,,,,,,,,,,,,0.9,0.6,0.6,6*3F
$GPGSV,3,1,12,03,13,113,26,04,41,060,30,06,56,234,37,07,44,168,36,1*6E
$GPGSV,3,2,12,11,42,296,30,16,09,063,25,20,23,302,24,30,18,191,31,1*67
$GPGSV,3,3,12,09,73,047,,19,,,,26,07,036,,29,,,,1*6C
$GPGSV,1,1,01,,,,47,1*66
$GLGSV,2,1,08,74,28,042,23,66,37,285,26,82,14,337,22,75,34,108,42,1*70
$GLGSV,2,2,08,88,31,222,51,81,42,292,31,72,20,073,28,65,65,019,,1*71
$GAGSV,3,1,10,03,59,057,35,05,09,066,26,07,11,250,41,08,63,260,36,7*7A
$GAGSV,3,2,10,13,54,272,36,15,37,191,46,25,14,091,33,26,16,322,21,7*70
$GAGSV,3,3,10,02,00,136,,24,11,040,,7*76
$GPGSV,2,1,06,03,13,113,,04,41,060,,06,56,234,,09,73,047,,8*63
$GPGSV,2,2,06,11,42,296,,30,18,191,,8*63
$GAGSV,2,1,08,03,59,057,,05,09,066,,07,11,250,,08,63,260,,1*76
$GAGSV,2,2,08,13,54,272,,15,37,191,,25,14,091,,26,16,322,,1*7A
$GPGGA,111736.00,4728.239934,N,00752.387476,E,1,09,0.6,426.4,M,48.0,M,,*6E
$GAGGA,111736.00,4728.239934,N,00752.387476,E,1,06,0.6,426.4,M,48.0,M,,*70
$GNGNS,111736.00,4728.239934,N,00752.387476,E,AAAANN,26,0.6,426.4,48.0,,,V*2D
$GPVTG,,T,0.5,M,0.0,N,0.0,K,A*08
$GAVTG,,T,0.5,M,0.0,N,0.0,K,A*19
$GPRMC,111736.00,A,4728.239934,N,00752.387476,E,0.0,,061023,0.5,W,A,V*75
$GARMC,111736.00,A,4728.239934,N,00752.387476,E,0.0,,061023,0.5,W,A,V*64
$GPGSA,A,3,03,04,06,07,09,11,16,20,30,,,,0.9,0.6,0.6,1*2F
$GAGSA,A,3,03,07,08,13,15,25,,,,,,,0.9,0.6,0.6,3*38
$GNGSA,A,3,03,04,06,07,09,11,16,20,30,,,,0.9,0.6,0.6,1*31
$GNGSA,A,3,66,72,75,81,88,,,,,,,,0.9,0.6,0.6,2*35
$GNGSA,A,3,03,07,08,13,15,25,,,,,,,0.9,0.6,0.6,3*37
$GNGSA,A,3,19,20,22,29,35,37,,,,,,,0.9,0.6,0.6,4*3E
$GNGSA,A,3,,,,,,,,,,,,,0.9,0.6,0.6,5*3C
$GNGSA,A,3,,,,,,,,,,,,,0.9,0.6,0.6,6*3F
$GPGSV,3,1,12,03,13,113,28,04,41,060,29,06,56,234,36,07,44,168,36,1*69
$GPGSV,3,2,12,09,73,047,31,11,42,296,29,16,09,063,22,20,23,302,25,1*64
$GPGSV,3,3,12,30,18,191,32,19,,,,26,07,036,,29,,,,1*60
$GPGSV,1,1,01,,,,47,1*66
$GLGSV,2,1,08,74,28,042,23,66,37,285,24,82,14,337,24,75,34,108,42,1*74
$GLGSV,2,2,08,88,31,222,51,81,42,292,32,72,20,073,26,65,65,019,,1*7C
$GAGSV,3,1,10,03,59,057,35,05,09,066,26,07,11,250,41,08,63,260,36,7*7A
$GAGSV,3,2,10,13,54,272,36,15,37,191,46,25,14,091,33,26,16,322,21,7*70
$GAGSV,3,3,10,02,00,136,,24,11,040,,7*76
$GPGSV,2,1,06,03,13,113,,04,41,060,,06,56,234,,09,73,047,,8*63
$GPGSV,2,2,06,11,42,296,,30,18,191,,8*63
$GAGSV,2,1,08,03,59,057,,05,09,066,,07,11,250,,08,63,260,,1*76
$GAGSV,2,2,08,13,54,272,,15,37,191,,25,14,091,,26,16,322,,1*7A
$GPGGA,111737.00,4728.239934,N,00752.387476,E,1,09,0.6,426.4,M,48.0,M,,*6F
$GAGGA,111737.00,4728.239934,N,00752.387476,E,1,06,0.6,426.4,M,48.0,M,,*71
$GNGNS,111737.00,4728.239934,N,00752.387476,E,AAAANN,26,0.6,426.4,48.0,,,V*2C
$GPVTG,,T,0.5,M,0.0,N,0.0,K,A*08
$GAVTG,,T,0.5,M,0.0,N,0.0,K,A*19
$GPRMC,111737.00,A,4728.239934,N,00752.387476,E,0.0,,061023,0.5,W,A,V*74
$GARMC,111737.00,A,4728.239934,N,00752.387476,E,0.0,,061023,0.5,W,A,V*65
$GPGSA,A,3,03,04,06,07,09,11,16,20,30,,,,0.9,0.6,0.6,1*2F
$GAGSA,A,3,03,07,08,13,15,25,,,,,,,0.9,0.6,0.6,3*38
$GNGSA,A,3,03,04,06,07,09,11,16,20,30,,,,0.9,0.6,0.6,1*31
$GNGSA,A,3,66,72,75,81,88,,,,,,,,0.9,0.6,0.6,2*35
$GNGSA,A,3,03,07,08,13,15,25,,,,,,,0.9,0.6,0.6,3*37
$GNGSA,A,3,19,20,22,29,35,37,,,,,,,0.9,0.6,0.6,4*3E
$GNGSA,A,3,,,,,,,,,,,,,0.9,0.6,0.6,5*3C
$GNGSA,A,3,,,,,,,,,,,,,0.9,0.6,0.6,6*3F
$GPGSV,3,1,12,03,13,113,28,04,41,060,29,06,56,234,34,07,44,168,37,1*6A
$GPGSV,3,2,12,11,42,296,29,16,09,063,23,20,23,302,26,30,18,191,31,1*6B
$GPGSV,3,3,12,09,73,047,,19,,,,26,07,036,,29,,,,1*6C
$GPGSV,1,1,01,,,,47,1*66
$GLGSV,2,1,08,74,28,042,23,66,37,285,25,82,14,337,24,75,34,108,42,1*75
$GLGSV,2,2,08,88,31,222,51,81,42,292,32,72,20,073,27,65,65,019,,1*7D
$GAGSV,3,1,10,03,59,057,35,05,09,066,26,07,11,250,41,08,63,260,35,7*79
$GAGSV,3,2,10,13,54,272,35,15,37,191,46,25,14,091,33,26,16,322,23,7*71
$GAGSV,3,3,10,02,00,136,,24,11,040,,7*76
$GPGSV,2,1,06,03,13,113,,04,41,060,,06,56,234,,09,73,047,,8*63
$GPGSV,2,2,06,11,42,296,,30,18,191,,8*63
$GAGSV,2,1,08,03,59,057,,05,09,066,,07,11,250,,08,63,260,,1*76
$GAGSV,2,2,08,13,54,272,,15,37,191,,25,14,091,,26,16,322,,1*7A
$GPGGA,111738.00,4728.239934,N,00752.387476,E,1,09,0.6,426.4,M,48.0,M,,*60
$GAGGA,111738.00,4728.239934,N,00752.387476,E,1,06,0.6,426.4,M,48.0,M,,*7E
$GNGNS,111738.00,4728.239934,N,00752.387476,E,AAAANN,26,0.6,426.4,48.0,,,V*23
$GPVTG,,T,0.5,M,0.0,N,0.0,K,A*08
$GAVTG,,T,0.5,M,0.0,N,0.0,K,A*19
$GPRMC,111738.00,A,4728.239934,N,00752.387476,E,0.0,,061023,0.5,W,A,V*7B
$GARMC,111738.00,A,4728.239934,N,00752.387476,E,0.0,,061023,0.5,W,A,V*6A
$GPGSA,A,3,03,04,06,07,09,11,16,20,30,,,,0.9,0.6,0.6,1*2F
$GAGSA,A,3,03,07,08,13,15,25,,,,,,,0.9,0.6,0.6,3*38
$GNGSA,A,3,03,04,06,07,09,11,16,20,30,,,,0.9,0.6,0.6,1*31
$GNGSA,A,3,66,72,75,81,88,,,,,,,,0.9,0.6,0.6,2*35
$GNGSA,A,3,03,07,08,13,15,25,,,,,,,0.9,0.6,0.6,3*37
$GNGSA,A,3,19,20,22,29,35,37,,,,,,,0.9,0.6,0.6,4*3E
$GNGSA,A,3,,,,,,,,,,,,,0.9,0.6,0.6,5*3C
$GNGSA,A,3,,,,,,,,,,,,,0.9,0.6,0.6,6*3F
$GPGSV,3,1,12,03,13,113,28,04,41,060,30,06,56,234,35,07,44,168,37,1*63
$GPGSV,3,2,12,11,42,296,30,16,09,063,23,20,23,302,24,30,18,191,31,1*61
$GPGSV,3,3,12,09,73,047,,19,,,,26,07,036,,29,,,,1*6C
$GPGSV,1,1,01,,,,47,1*66
$GLGSV,2,1,08,74,28,042,23,66,37,285,24,82,14,337,22,75,34,108,42,1*72
$GLGSV,2,2,08,88,31,222,51,81,42,292,30,72,20,073,26,65,65,019,,1*7E
$GAGSV,3,1,10,03,59,057,35,05,09,066,25,07,11,250,41,08,63,260,36,7*79
$GAGSV,3,2,10,13,54,272,36,15,37,191,46,25,14,091,32,26,16,322,23,7*73
$GAGSV,3,3,10,02,00,136,,24,11,040,,7*76
$GPGSV,2,1,06,03,13,113,,04,41,060,,06,56,234,,09,73,047,,8*63
$GPGSV,2,2,06,11,42,296,,30,18,191,,8*63
$GAGSV,2,1,07,03,59,057,,07,11,250,,08,63,260,,13,54,272,,1*71
$GAGSV,2,2,07,15,37,191,,25,14,091,,26,16,322,,1*41
$GPGGA,111739.00,4728.239935,N,00752.387477,E,1,09,0.6,426.4,M,48.0,M,,*61
$GAGGA,111739.00,4728.239935,N,00752.387477,E,1,06,0.6,426.4,M,48.0,M,,*7F
$GNGNS,111739.00,4728.239935,N,00752.387477,E,AAAANN,26,0.6,426.4,48.0,,,V*22
$GPVTG,,T,0.5,M,0.0,N,0.0,K,A*08
$GAVTG,,T,0.5,M,0.0,N,0.0,K,A*19
$GPRMC,111739.00,A,4728.239935,N,00752.387477,E,0.0,,061023,0.5,W,A,V*7A
$GARMC,111739.00,A,4728.239935,N,00752.387477,E,0.0,,061023,0.5,W,A,V*6B
$GPGSA,A,3,03,04,06,07,09,11,16,20,30,,,,0.9,0.6,0.6,1*2F
$GAGSA,A,3,03,07,08,13,15,25,,,,,,,0.9,0.6,0.6,3*38
$GNGSA,A,3,03,04,06,07,09,11,16,20,30,,,,0.9,0.6,0.6,1*31
$GNGSA,A,3,66,72,75,81,88,,,,,,,,0.9,0.6,0.6,2*35
$GNGSA,A,3,03,07,08,13,15,25,,,,,,,0.9,0.6,0.6,3*37
$GNGSA,A,3,19,20,22,29,35,37,,,,,,,0.9,0.6,0.6,4*3E
$GNGSA,A,3,,,,,,,,,,,,,0.9,0.6,0.6,5*3C
$GNGSA,A,3,,,,,,,,,,,,,0.9,0.6,0.6,6*3F
$GPGSV,3,1,12,03,13,113,28,04,41,060,30,06,56,234,35,07,44,168,37,1*63
$GPGSV,3,2,12,11,42,296,29,16,09,063,21,20,23,302,24,30,18,191,31,1*6B
$GPGSV,3,3,12,09,73,047,,19,,,,26,07,036,,29,,,,1*6C
$GPGSV,1,1,01,,,,47,1*66
$GLGSV,2,1,08,74,28,042,24,66,37,285,24,82,14,337,22,75,34,108,43,1*74
$GLGSV,2,2,08,88,31,222,51,81,42,292,28,72,20,073,28,65,65,019,,1*79
$GAGSV,3,1,10,03,59,057,35,05,09,066,25,07,11,250,42,08,63,260,36,7*7A
$GAGSV,3,2,10,13,54,272,38,15,37,191,46,25,14,091,33,26,16,322,20,7*7F
$GAGSV,3,3,10,02,00,136,,24,11,040,,7*76
$GPGSV,2,1,06,03,13,113,,04,41,060,,06,56,234,,09,73,047,,8*63
$GPGSV,2,2,06,11,42,296,,30,18,191,,8*63
$GAGSV,2,1,08,03,59,057,,05,09,066,,07,11,250,,08,63,260,,1*76
$GAGSV,2,2,08,13,54,272,,15,37,191,,25,14,091,,26,16,322,,1*7A
$GPGGA,111740.00,4728.239935,N,00752.387477,E,1,09,0.6,426.4,M,48.0,M,,*6F
$GAGGA,111740.00,4728.239935,N,00752.387477,E,1,06,0.6,426.4,M,48.0,M,,*71
$GNGNS,111740.00,4728.239935,N,00752.387477,E,AAAANN,26,0.6,426.4,48.0,,,V*2C
$GPVTG,,T,0.5,M,0.0,N,0.0,K,A*08
$GAVTG,,T,0.5,M,0.0,N,0.0,K,A*19
$GPRMC,111740.00,A,4728.239935,N,00752.387477,E,0.0,,061023,0.5,W,A,V*74
$GARMC,111740.00,A,4728.239935,N,00752.387477,E,0.0,,061023,0.5,W,A,V*65
$GPGSA,A,3,03,04,06,07,09,11,16,20,30,,,,0.9,0.6,0.6,1*2F
$GAGSA,A,3,03,07,08,13,15,25,,,,,,,0.9,0.6,0.6,3*38
$GNGSA,A,3,03,04,06,07,09,11,16,20,30,,,,0.9,0.6,0.6,1*31
$GNGSA,A,3,66,72,75,81,88,,,,,,,,0.9,0.6,0.6,2*35
$GNGSA,A,3,03,07,08,13,15,25,,,,,,,0.9,0.6,0.6,3*37
$GNGSA,A,3,19,20,22,29,35,37,,,,,,,0.9,0.6,0.6,4*3E
$GNGSA,A,3,,,,,,,,,,,,,0.9,0.6,0.6,5*3C
$GNGSA,A,3,,,,,,,,,,,,,0.9,0.6,0.6,6*3F
$GPGSV,3,1,12,03,13,113,28,04,41,060,29,06,56,234,33,07,44,168,37,1*6D
$GPGSV,3,2,12,11,42,296,26,16,09,063,23,20,23,302,23,30,18,191,31,1*61
$GPGSV,3,3,12,09,73,047,,19,,,,26,07,036,,29,,,,1*6C
$GPGSV,1,1,01,,,,47,1*66
$GLGSV,2,1,08,74,28,042,24,66,37,285,21,82,14,337,22,75,34,108,43,1*71
$GLGSV,2,2,08,88,31,222,51,81,42,292,32,72,20,073,28,65,65,019,,1*72
$GAGSV,3,1,10,03,59,057,35,05,09,066,27,07,11,250,42,08,63,260,35,7*7B
$GAGSV,3,2,10,13,54,272,38,15,37,191,46,25,14,091,33,26,16,322,20,7*7F
$GAGSV,3,3,10,02,00,136,,24,11,040,,7*76
$GPGSV,2,1,06,03,13,113,,04,41,060,,06,56,234,,09,73,047,,8*63
$GPGSV,2,2,06,11,42,296,,30,18,191,,8*63
$GAGSV,2,1,08,03,59,057,,05,09,066,,07,11,250,,08,63,260,,1*76
$GAGSV,2,2,08,13,54,272,,15,37,191,,25,14,091,,26,16,322,,1*7A
$GPGGA,111741.00,4728.239935,N,00752.387478,E,1,09,0.6,426.4,M,48.0,M,,*61
$GAGGA,111741.00,4728.239935,N,00752.387478,E,1,06,0.6,426.4,M,48.0,M,,*7F
$GNGNS,111741.00,4728.239935,N,00752.387478,E,AAAANN,27,0.6,426.4,48.0,,,V*23
$GPVTG,,T,0.5,M,0.0,N,0.0,K,A*08
$GAVTG,,T,0.5,M,0.0,N,0.0,K,A*19
$GPRMC,111741.00,A,4728.239935,N,00752.387478,E,0.0,,061023,0.5,W,A,V*7A
$GARMC,111741.00,A,4728.239935,N,00752.387478,E,0.0,,061023,0.5,W,A,V*6B
$GPGSA,A,3,03,04,06,07,09,11,16,20,30,,,,0.8,0.6,0.6,1*2E
$GAGSA,A,3,03,07,08,13,15,25,,,,,,,0.8,0.6,0.6,3*39
$GNGSA,A,3,03,04,06,07,09,11,16,20,30,,,,0.8,0.6,0.6,1*30
$GNGSA,A,3,66,72,74,75,81,88,,,,,,,0.8,0.6,0.6,2*37
$GNGSA,A,3,03,07,08,13,15,25,,,,,,,0.8,0.6,0.6,3*36
$GNGSA,A,3,19,20,22,29,35,37,,,,,,,0.8,0.6,0.6,4*3F
$GNGSA,A,3,,,,,,,,,,,,,0.8,0.6,0.6,5*3D
$GNGSA,A,3,,,,,,,,,,,,,0.8,0.6,0.6,6*3E
$GPGSV,3,1,12,03,13,113,29,04,41,060,30,06,56,234,33,07,44,168,37,1*64
$GPGSV,3,2,12,11,42,296,28,16,09,063,24,20,23,302,23,30,18,191,31,1*68
$GPGSV,3,3,12,09,73,047,,19,,,,26,07,036,,29,,,,1*6C
$GPGSV,1,1,01,,,,47,1*66
$GLGSV,2,1,08,74,28,042,24,66,37,285,22,82,14,337,22,75,34,108,42,1*73
$GLGSV,2,2,08,65,65,019,24,88,31,222,51,81,42,292,32,72,20,073,29,1*75
$GAGSV,3,1,10,03,59,057,35,05,09,066,25,07,11,250,41,08,63,260,35,7*7A
$GAGSV,3,2,10,13,54,272,39,15,37,191,46,25,14,091,33,26,16,322,19,7*74
$GAGSV,3,3,10,02,00,136,,24,11,040,,7*76
$GPGSV,2,1,06,03,13,113,,04,41,060,,06,56,234,,09,73,047,,8*63
$GPGSV,2,2,06,11,42,296,,30,18,191,,8*63
$GAGSV,2,1,08,03,59,057,,05,09,066,,07,11,250,,08,63,260,,1*76
$GAGSV,2,2,08,13,54,272,,15,37,191,,25,14,091,,26,16,322,,1*7A
$GPGGA,111742.00,4728.239935,N,00752.387479,E,1,09,0.6,426.4,M,48.0,M,,*63
$GAGGA,111742.00,4728.239935,N,00752.387479,E,1,06,0.6,426.4,M,48.0,M,,*7D
$GNGNS,111742.00,4728.239935,N,00752.387479,E,AAAANN,27,0.6,426.4,48.0,,,V*21
$GPVTG,,T,0.5,M,0.0,N,0.0,K,A*08
$GAVTG,,T,0.5,M,0.0,N,0.0,K,A*19
$GPRMC,111742.00,A,4728.239935,N,00752.387479,E,0.0,,061023,0.5,W,A,V*78
$GARMC,111742.00,A,4728.239935,N,00752.387479,E,0.0,,061023,0.5,W,A,V*69
$GPGSA,A,3,03,04,06,07,09,11,16,20,30,,,,0.8,0.6,0.6,1*2E
$GAGSA,A,3,03,07,08,13,15,25,,,,,,,0.8,0.6,0.6,3*39
$GNGSA,A,3,03,04,06,07,09,11,16,20,30,,,,0.8,0.6,0.6,1*30
$GNGSA,A,3,66,72,74,75,81,88,,,,,,,0.8,0.6,0.6,2*37
$GNGSA,A,3,03,07,08,13,15,25,,,,,,,0.8,0.6,0.6,3*36
$GNGSA,A,3,19,20,22,29,35,37,,,,,,,0.8,0.6,0.6,4*3F
$GNGSA,A,3,,,,,,,,,,,,,0.8,0.6,0.6,5*3D
$GNGSA,A,3,,,,,,,,,,,,,0.8,0.6,0.6,6*3E
$GPGSV,3,1,12,03,13,113,27,04,41,060,29,06,56,234,33,07,44,168,38,1*6D
$GPGSV,3,2,12,11,42,296,29,16,09,063,23,20,23,302,23,30,18,191,30,1*6F
$GPGSV,3,3,12,09,73,047,,19,,,,26,07,036,,29,,,,1*6C
$GPGSV,1,1,01,,,,47,1*66
$GLGSV,2,1,08,74,28,042,23,66,37,285,22,82,14,337,19,75,34,108,42,1*7C
$GLGSV,2,2,08,65,65,019,22,88,31,222,51,81,42,292,31,72,20,073,28,1*71
$GAGSV,3,1,10,03,59,057,35,05,09,066,26,07,11,250,42,08,63,260,35,7*7A
$GAGSV,3,2,10,13,54,272,38,15,37,191,46,25,14,091,33,26,16,322,19,7*75
$GAGSV,3,3,10,02,00,136,,24,11,040,,7*76
$GAGSV,1,1,01,05,09,066,,1*48
$GPGGA,111743.00,4728.239935,N,00752.387479,E,1,08,0.6,426.4,M,48.0,M,,*63
$GAGGA,111743.00,4728.239935,N,00752.387479,E,1,06,0.6,426.4,M,48.0,M,,*7C
$GNGNS,111743.00,4728.239935,N,00752.387479,E,AAAANN,26,0.6,426.4,48.0,,,V*21
$GPVTG,,T,0.5,M,0.0,N,0.0,K,A*08
$GAVTG,,T,0.5,M,0.0,N,0.0,K,A*19
$GPRMC,111743.00,A,4728.239935,N,00752.387479,E,0.0,,061023,0.5,W,A,V*79
$GARMC,111743.00,A,4728.239935,N,00752.387479,E,0.0,,061023,0.5,W,A,V*68
$GPGSA,A,3,03,04,06,07,11,16,20,30,,,,,0.9,0.6,0.6,1*26
$GAGSA,A,3,03,07,08,13,15,25,,,,,,,0.9,0.6,0.6,3*38
$GNGSA,A,3,03,04,06,07,11,16,20,30,,,,,0.9,0.6,0.6,1*38
$GNGSA,A,3,66,72,74,75,81,88,,,,,,,0.9,0.6,0.6,2*36
$GNGSA,A,3,03,07,08,13,15,25,,,,,,,0.9,0.6,0.6,3*37
$GNGSA,A,3,19,20,22,29,35,37,,,,,,,0.9,0.6,0.6,4*3E
$GNGSA,A,3,,,,,,,,,,,,,0.9,0.6,0.6,5*3C
$GNGSA,A,3,,,,,,,,,,,,,0.9,0.6,0.6,6*3F
$GPGSV,3,1,12,03,13,113,28,04,41,060,31,06,56,234,33,07,44,168,38,1*6B
$GPGSV,3,2,12,11,42,296,30,16,09,063,24,20,23,302,23,30,18,191,30,1*60
$GPGSV,3,3,12,09,73,047,,19,,,,26,07,036,,29,,,,1*6C
$GPGSV,1,1,01,,,,46,1*67
$GLGSV,2,1,08,74,28,042,22,66,37,285,23,82,14,337,19,75,34,108,42,1*7C
$GLGSV,2,2,08,88,31,222,51,81,42,292,31,72,20,073,29,65,65,019,,1*70
$GAGSV,3,1,10,03,59,057,35,05,09,066,26,07,11,250,41,08,63,260,35,7*79
$GAGSV,3,2,10,13,54,272,38,15,37,191,47,25,14,091,33,26,16,322,20,7*7E
$GAGSV,3,3,10,02,00,136,,24,11,040,,7*76
$GPGSV,2,1,06,03,13,113,,04,41,060,,06,56,234,,09,73,047,,8*63
$GPGSV,2,2,06,11,42,296,,30,18,191,,8*63
$GAGSV,2,1,08,03,59,057,,05,09,066,,07,11,250,,08,63,260,,1*76
$GAGSV,2,2,08,13,54,272,,15,37,191,,25,14,091,,26,16,322,,1*7A
$GPGGA,111744.00,4728.239935,N,00752.387480,E,1,08,0.6,426.4,M,48.0,M,,*62
$GAGGA,111744.00,4728.239935,N,00752.387480,E,1,06,0.6,426.4,M,48.0,M,,*7D
$GNGNS,111744.00,4728.239935,N,00752.387480,E,AAAANN,25,0.6,426.4,48.0,,,V*23
$GPVTG,,T,0.5,M,0.0,N,0.0,K,A*08
$GAVTG,,T,0.5,M,0.0,N,0.0,K,A*19
$GPRMC,111744.00,A,4728.239935,N,00752.387480,E,0.0,,061023,0.5,W,A,V*78
$GARMC,111744.00,A,4728.239935,N,00752.387480,E,0.0,,061023,0.5,W,A,V*69
$GPGSA,A,3,03,04,06,07,11,16,20,30,,,,,0.9,0.6,0.6,1*26
$GAGSA,A,3,03,07,08,13,15,25,,,,,,,0.9,0.6,0.6,3*38
$GNGSA,A,3,03,04,06,07,11,16,20,30,,,,,0.9,0.6,0.6,1*38
$GNGSA,A,3,72,74,75,81,88,,,,,,,,0.9,0.6,0.6,2*36
$GNGSA,A,3,03,07,08,13,15,25,,,,,,,0.9,0.6,0.6,3*37
$GNGSA,A,3,19,20,22,29,35,37,,,,,,,0.9,0.6,0.6,4*3E
$GNGSA,A,3,,,,,,,,,,,,,0.9,0.6,0.6,5*3C
$GNGSA,A,3,,,,,,,,,,,,,0.9,0.6,0.6,6*3F
$GPGSV,3,1,11,03,13,113,28,04,41,060,30,06,56,234,32,07,44,168,37,1*67
$GPGSV,3,2,11,09,73,047,30,11,42,296,28,16,09,063,24,20,23,302,23,1*67
$GPGSV,3,3,11,30,18,191,30,26,07,036,,29,,,,1*69
$GPGSV,1,1,01,,,,47,1*66
$GLGSV,2,1,08,74,28,042,24,66,37,285,23,82,14,337,19,75,34,108,42,1*7A
$GLGSV,2,2,08,88,31,222,51,81,42,292,30,72,20,073,28,65,65,019,,1*70
$GAGSV,3,1,10,03,59,057,35,05,09,066,27,07,11,250,41,08,63,260,35,7*78
$GAGSV,3,2,10,13,54,272,38,15,37,191,47,25,14,091,32,26,16,322,21,7*7E
$GAGSV,3,3,10,02,00,136,,24,11,040,,7*76
$GPGSV,2,1,06,03,13,113,,04,41,060,,06,56,234,,09,73,047,,8*63
$GPGSV,2,2,06,11,42,296,,30,18,191,,8*63
$GAGSV,2,1,08,03,59,057,,05,09,066,,07,11,250,,08,63,260,,1*76
$GAGSV,2,2,08,13,54,272,,15,37,191,,25,14,091,,26,16,322,,1*7A
$GPGGA,111745.00,4728.239935,N,00752.387481,E,1,09,0.6,426.4,M,48.0,M,,*63
$GAGGA,111745.00,4728.239935,N,00752.387481,E,1,06,0.6,426.4,M,48.0,M,,*7D
$GNGNS,111745.00,4728.239935,N,00752.387481,E,AAAANN,26,0.6,426.4,48.0,,,V*20
$GPVTG,,T,0.5,M,0.0,N,0.0,K,A*08
$GAVTG,,T,0.5,M,0.0,N,0.0,K,A*19
$GPRMC,111745.00,A,4728.239935,N,00752.387481,E,0.0,,061023,0.5,W,A,V*78
$GARMC,111745.00,A,4728.239935,N,00752.387481,E,0.0,,061023,0.5,W,A,V*69
$GPGSA,A,3,03,04,06,07,09,11,16,20,30,,,,0.8,0.6,0.6,1*2E
$GAGSA,A,3,03,07,08,13,15,25,,,,,,,0.8,0.6,0.6,3*39
$GNGSA,A,3,03,04,06,07,09,11,16,20,30,,,,0.8,0.6,0.6,1*30
$GNGSA,A,3,72,74,75,81,88,,,,,,,,0.8,0.6,0.6,2*37
$GNGSA,A,3,03,07,08,13,15,25,,,,,,,0.8,0.6,0.6,3*36
$GNGSA,A,3,19,20,22,29,35,37,,,,,,,0.8,0.6,0.6,4*3F
$GNGSA,A,3,,,,,,,,,,,,,0.8,0.6,0.6,5*3D
$GNGSA,A,3,,,,,,,,,,,,,0.8,0.6,0.6,6*3E
$GPGSV,3,1,11,03,13,113,27,04,41,060,31,06,56,234,32,07,44,168,38,1*66
$GPGSV,3,2,11,11,42,296,29,16,09,063,24,30,18,191,31,09,73,047,,1*67
$GPGSV,3,3,11,20,23,302,,26,07,036,,29,,,,1*6B
$GPGSV,1,1,01,,,,47,1*66
$GLGSV,2,1,08,74,27,042,24,66,37,285,24,82,14,337,19,75,34,108,42,1*72
$GLGSV,2,2,08,88,31,222,51,81,42,292,31,72,20,073,27,65,65,019,,1*7E
$GAGSV,3,1,10,03,59,057,35,05,09,066,27,07,11,250,41,08,63,260,35,7*78
$GAGSV,3,2,10,13,54,272,38,15,37,191,46,25,14,091,33,26,16,322,21,7*7E
$GAGSV,3,3,10,02,00,136,,24,11,040,,7*76
$GPGSV,2,1,06,03,13,113,,04,41,060,,06,56,234,,09,73,047,,8*63
$GPGSV,2,2,06,11,42,296,,30,18,191,,8*63
$GAGSV,2,1,08,03,59,057,,05,09,066,,07,11,250,,08,63,260,,1*76
$GAGSV,2,2,08,13,54,272,,15,37,191,,25,14,091,,26,16,322,,1*7A
$GPGGA,111746.00,4728.239934,N,00752.387482,E,1,08,0.6,426.4,M,48.0,M,,*63
$GAGGA,111746.00,4728.239934,N,00752.387482,E,1,06,0.6,426.4,M,48.0,M,,*7C
$GNGNS,111746.00,4728.239934,N,00752.387482,E,AAAANN,26,0.6,426.4,48.0,,,V*21
$GPVTG,,T,0.5,M,0.0,N,0.0,K,A*08
$GAVTG,,T,0.5,M,0.0,N,0.0,K,A*19
$GPRMC,111746.00,A,4728.239934,N,00752.387482,E,0.0,,061023,0.5,W,A,V*79
$GARMC,111746.00,A,4728.239934,N,00752.387482,E,0.0,,061023,0.5,W,A,V*68
$GPGSA,A,3,03,04,06,07,09,11,16,30,,,,,0.9,0.6,0.6,1*2D
$GAGSA,A,3,03,07,08,13,15,25,,,,,,,0.9,0.6,0.6,3*38
$GNGSA,A,3,03,04,06,07,09,11,16,30,,,,,0.9,0.6,0.6,1*33
$GNGSA,A,3,66,72,74,75,81,88,,,,,,,0.9,0.6,0.6,2*36
$GNGSA,A,3,03,07,08,13,15,25,,,,,,,0.9,0.6,0.6,3*37
$GNGSA,A,3,19,20,22,29,35,37,,,,,,,0.9,0.6,0.6,4*3E
$GNGSA,A,3,,,,,,,,,,,,,0.9,0.6,0.6,5*3C
$GNGSA,A,3,,,,,,,,,,,,,0.9,0.6,0.6,6*3F
$GPGSV,3,1,11,03,13,113,28,04,41,060,31,06,56,234,32,07,44,168,38,1*69
$GPGSV,3,2,11,11,42,296,29,16,09,063,25,20,23,302,25,30,18,191,31,1*6D
$GPGSV,3,3,11,09,73,047,,26,07,036,,29,,,,1*67
$GPGSV,1,1,01,,,,47,1*66
$GLGSV,2,1,08,74,27,042,21,66,37,285,24,82,14,337,19,75,34,108,42,1*77
$GLGSV,2,2,08,88,31,222,51,81,42,292,34,72,20,073,28,65,65,019,,1*74
$GAGSV,3,1,10,03,59,057,36,05,09,066,27,07,11,250,41,08,63,260,35,7*7B
$GAGSV,3,2,10,13,54,272,38,15,37,191,47,25,14,091,32,26,16,322,19,7*75
$GAGSV,3,3,10,02,00,136,,24,11,040,,7*76
$GPGSV,2,1,06,03,13,113,,04,41,060,,06,56,234,,09,73,047,,8*63
$GPGSV,2,2,06,11,42,296,,30,18,191,,8*63
$GAGSV,2,1,08,03,59,057,,05,09,066,,07,11,250,,08,63,260,,1*76
$GAGSV,2,2,08,13,54,272,,15,37,191,,25,14,091,,26,16,322,,1*7A
$GPGGA,111747.00,4728.239934,N,00752.387482,E,1,09,0.6,426.4,M,48.0,M,,*63
$GAGGA,111747.00,4728.239934,N,00752.387482,E,1,06,0.6,426.4,M,48.0,M,,*7D
$GNGNS,111747.00,4728.239934,N,00752.387482,E,AAAANN,27,0.6,426.4,48.0,,,V*21
$GPVTG,,T,0.5,M,0.0,N,0.0,K,A*08
$GAVTG,,T,0.5,M,0.0,N,0.0,K,A*19
$GPRMC,111747.00,A,4728.239934,N,00752.387482,E,0.0,,061023,0.5,W,A,V*78
$GARMC,111747.00,A,4728.239934,N,00752.387482,E,0.0,,061023,0.5,W,A,V*69
$GPGSA,A,3,03,04,06,07,09,11,16,20,30,,,,0.8,0.6,0.6,1*2E
$GAGSA,A,3,03,07,08,13,15,25,,,,,,,0.8,0.6,0.6,3*39
$GNGSA,A,3,03,04,06,07,09,11,16,20,30,,,,0.8,0.6,0.6,1*30
$GNGSA,A,3,66,72,74,75,81,88,,,,,,,0.8,0.6,0.6,2*37
$GNGSA,A,3,03,07,08,13,15,25,,,,,,,0.8,0.6,0.6,3*36
$GNGSA,A,3,19,20,22,29,35,37,,,,,,,0.8,0.6,0.6,4*3F
$GNGSA,A,3,,,,,,,,,,,,,0.8,0.6,0.6,5*3D
$GNGSA,A,3,,,,,,,,,,,,,0.8,0.6,0.6,6*3E
$GPGSV,3,1,11,03,13,113,28,04,41,060,31,06,56,234,31,07,44,168,38,1*6A
$GPGSV,3,2,11,11,42,296,30,16,09,063,26,20,23,302,23,30,18,191,33,1*62
$GPGSV,3,3,11,09,73,047,,26,07,036,,29,,,,1*67
$GPGSV,1,1,01,,,,47,1*66
$GLGSV,2,1,08,74,27,042,23,66,37,285,22,82,14,337,19,75,34,108,42,1*73
$GLGSV,2,2,08,88,31,222,51,81,42,292,34,72,20,073,27,65,65,019,,1*7B
$GAGSV,3,1,10,03,59,057,36,05,09,066,26,07,11,250,41,08,63,260,36,7*79
$GAGSV,3,2,10,13,54,272,38,15,37,191,47,25,14,091,32,26,16,322,19,7*75
$GAGSV,3,3,10,02,00,136,,24,11,040,,7*76
$GPGSV,2,1,06,03,13,113,,04,41,060,,06,56,234,,09,73,047,,8*63
$GPGSV,2,2,06,11,42,296,,30,18,191,,8*63
$GAGSV,2,1,08,03,59,057,,05,09,066,,07,11,250,,08,63,260,,1*76
$GAGSV,2,2,08,13,54,272,,15,37,191,,25,14,091,,26,16,322,,1*7A
$GPGGA,111748.00,4728.239934,N,00752.387483,E,1,09,0.6,426.4,M,48.0,M,,*6D
$GAGGA,111748.00,4728.239934,N,00752.387483,E,1,06,0.6,426.4,M,48.0,M,,*73
$GNGNS,111748.00,4728.239934,N,00752.387483,E,AAAANN,26,0.6,426.4,48.0,,,V*2E
$GPVTG,,T,0.5,M,0.0,N,0.0,K,A*08
$GAVTG,,T,0.5,M,0.0,N,0.0,K,A*19
$GPRMC,111748.00,A,4728.239934,N,00752.387483,E,0.0,,061023,0.5,W,A,V*76
$GARMC,111748.00,A,4728.239934,N,00752.387483,E,0.0,,061023,0.5,W,A,V*67
$GPGSA,A,3,03,04,06,07,09,11,16,20,30,,,,0.9,0.6,0.6,1*2F
$GAGSA,A,3,03,07,08,13,15,25,,,,,,,0.9,0.6,0.6,3*38
$GNGSA,A,3,03,04,06,07,09,11,16,20,30,,,,0.9,0.6,0.6,1*31
$GNGSA,A,3,66,72,75,81,88,,,,,,,,0.9,0.6,0.6,2*35
$GNGSA,A,3,03,07,08,13,15,25,,,,,,,0.9,0.6,0.6,3*37
$GNGSA,A,3,19,20,22,29,35,37,,,,,,,0.9,0.6,0.6,4*3E
$GNGSA,A,3,,,,,,,,,,,,,0.9,0.6,0.6,5*3C
$GNGSA,A,3,,,,,,,,,,,,,0.9,0.6,0.6,6*3F
$GPGSV,3,1,11,03,13,113,25,04,41,060,31,06,56,234,32,07,44,168,38,1*64
$GPGSV,3,2,11,09,73,047,31,11,42,296,29,16,09,063,26,20,23,302,27,1*61
$GPGSV,3,3,11,30,18,191,34,26,07,036,,29,,,,1*6D
$GPGSV,1,1,01,,,,47,1*66
$GLGSV,2,1,08,74,27,042,24,66,37,285,27,82,14,337,19,75,34,108,42,1*71
$GLGSV,2,2,08,88,31,222,51,81,42,292,32,72,20,073,29,65,65,019,,1*73
$GAGSV,3,1,10,03,59,057,36,05,09,066,26,07,11,250,41,08,63,260,35,7*7A
$GAGSV,3,2,10,13,54,272,38,15,37,191,46,25,14,091,32,26,16,322,19,7*74
$GAGSV,3,3,10,02,00,136,,24,11,040,,7*76
$GPGSV,2,1,06,03,13,113,,04,41,060,,06,56,234,,09,73,047,,8*63
$GPGSV,2,2,06,11,42,296,,30,18,191,,8*63
$GAGSV,2,1,08,03,59,057,,05,09,066,,07,11,250,,08,63,260,,1*76
$GAGSV,2,2,08,13,54,272,,15,37,191,,25,14,091,,26,16,322,,1*7A
$GPGGA,111749.00,4728.239934,N,00752.387484,E,1,09,0.6,426.4,M,48.0,M,,*6B
$GAGGA,111749.00,4728.239934,N,00752.387484,E,1,06,0.6,426.4,M,48.0,M,,*75
$GNGNS,111749.00,4728.239934,N,00752.387484,E,AAAANN,26,0.6,426.4,48.0,,,V*28
$GPVTG,,T,0.5,M,0.0,N,0.0,K,A*08
$GAVTG,,T,0.5,M,0.0,N,0.0,K,A*19
$GPRMC,111749.00,A,4728.239934,N,00752.387484,E,0.0,,061023,0.5,W,A,V*70
$GARMC,111749.00,A,4728.239934,N,00752.387484,E,0.0,,061023,0.5,W,A,V*61
$GPGSA,A,3,03,04,06,07,09,11,16,20,30,,,,0.9,0.6,0.6,1*2F
$GAGSA,A,3,03,07,08,13,15,25,,,,,,,0.9,0.6,0.6,3*38
$GNGSA,A,3,03,04,06,07,09,11,16,20,30,,,,0.9,0.6,0.6,1*31
$GNGSA,A,3,66,72,75,81,88,,,,,,,,0.9,0.6,0.6,2*35
$GNGSA,A,3,03,07,08,13,15,25,,,,,,,0.9,0.6,0.6,3*37
$GNGSA,A,3,19,20,22,29,35,37,,,,,,,0.9,0.6,0.6,4*3E
$GNGSA,A,3,,,,,,,,,,,,,0.9,0.6,0.6,5*3C
$GNGSA,A,3,,,,,,,,,,,,,0.9,0.6,0.6,6*3F
$PTLTGSM,LTE,-88*35
$PTLTIO,1,0*1b