$GPGSV,4,1,13,02,28,262,20,08,60,300,28,10,63,095,18,16,30,187,22,1*63
$GPGSV,4,2,13,21,37,264,16,23,35,050,27,07,04,286,,15,03,025,,1*68
$GPGSV,4,3,13,18,09,068,,26,04,174,,27,78,119,,30,03,312,,1*6E
$GPGSV,4,4,13,32,07,133,,1*51
$GLGSV,3,1,09,82,53,310,29,73,19,327,24,79,14,213,12,81,54,052,21,1*7E
$GLGSV,3,2,09,66,42,097,,80,36,267,,65,24,033,,83,15,281,,1*77
$GLGSV,3,3,09,67,17,151,,1*43
$GBGSV,1,1,01,24,21,291,20,1*4A
$GAGSV,1,1,01,19,07,139,,7*46
$GPGSV,2,1,06,23,35,050,23,08,60,300,,10,63,095,,18,09,068,,8*60
$GPGSV,2,2,06,26,04,174,,27,78,119,,8*6A
$GBGSV,1,1,01,24,21,291,18,5*45
$GPGGA,075101.00,4728.258242,N,00752.388570,E,1,04,1.2,433.8,M,48.0,M,,*6A
$GAGGA,075101.00,4728.258242,N,00752.388570,E,1,00,1.2,433.8,M,48.0,M,,*7F
$GNGNS,075101.00,4728.258242,N,00752.388570,E,AANNNN,07,1.2,433.8,48.0,,,V*27
$GPVTG,,T,0.5,M,0.0,N,0.0,K,A*08
$GAVTG,,T,0.5,M,0.0,N,0.0,K,A*19
$GPRMC,075101.00,A,4728.258242,N,00752.388570,E,0.0,,080823,0.5,W,A,V*76
$GARMC,075101.00,A,4728.258242,N,00752.388570,E,0.0,,080823,0.5,W,A,V*67
$GPGSA,A,3,08,10,16,23,,,,,,,,,1.5,1.2,0.9,1*2E
$GAGSA,A,3,,,,,,,,,,,,,1.5,1.2,0.9,3*32
$GBGSA,A,1,,,,,,,,,,,,,,,,*20
$GQGSA,A,1,,,,,,,,,,,,,,,,*33
$GNGSA,A,3,08,10,16,23,,,,,,,,,1.5,1.2,0.9,1*30
$GNGSA,A,3,73,81,82,,,,,,,,,,1.5,1.2,0.9,2*3B
$GNGSA,A,3,,,,,,,,,,,,,1.5,1.2,0.9,3*3D
$GNGSA,A,3,,,,,,,,,,,,,1.5,1.2,0.9,4*3A
$GNGSA,A,3,,,,,,,,,,,,,1.5,1.2,0.9,5*3B
$GNGSA,A,3,,,,,,,,,,,,,1.5,1.2,0.9,6*38
$GPGSV,4,1,13,02,28,262,19,08,60,300,27,10,63,095,18,16,30,187,22,1*66
$GPGSV,4,2,13,21,37,264,16,23,35,050,27,07,04,286,,15,03,025,,1*68
$GPGSV,4,3,13,18,09,068,,26,04,174,,27,78,119,,30,03,312,,1*6E
$GPGSV,4,4,13,32,07,133,,1*51
$GLGSV,3,1,09,82,53,310,29,73,19,327,25,79,14,213,12,81,54,052,21,1*7F
$GLGSV,3,2,09,66,42,097,,80,36,267,,65,24,033,,83,15,281,,1*77
$GLGSV,3,3,09,67,17,151,,1*43
$GBGSV,1,1,01,24,21,291,20,1*4A
$GAGSV,1,1,01,19,07,139,,7*46
$GPGSV,2,1,06,23,35,050,22,08,60,300,,10,63,095,,18,09,068,,8*61
$GPGSV,2,2,06,26,04,174,,27,78,119,,8*6A
$GBGSV,1,1,01,24,21,291,18,5*45
$GPGGA,075102.00,4728.258242,N,00752.388570,E,1,05,1.1,433.8,M,48.0,M,,*6B
$GAGGA,075102.00,4728.258242,N,00752.388570,E,1,00,1.1,433.8,M,48.0,M,,*7F
$GNGNS,075102.00,4728.258242,N,00752.388570,E,AANNNN,08,1.1,433.8,48.0,,,V*28
$GPVTG,,T,0.5,M,0.0,N,0.0,K,A*08
$GAVTG,,T,0.5,M,0.0,N,0.0,K,A*19
$GPRMC,075102.00,A,4728.258242,N,00752.388570,E,0.0,,080823,0.5,W,A,V*75
$GARMC,075102.00,A,4728.258242,N,00752.388570,E,0.0,,080823,0.5,W,A,V*64
$GPGSA,A,3,02,08,10,16,23,,,,,,,,1.4,1.1,0.9,1*2E
$GAGSA,A,3,,,,,,,,,,,,,1.4,1.1,0.9,3*30
$GBGSA,A,1,,,,,,,,,,,,,,,,*20
$GQGSA,A,1,,,,,,,,,,,,,,,,*33
$GNGSA,A,3,02,08,10,16,23,,,,,,,,1.4,1.1,0.9,1*30
$GNGSA,A,3,73,81,82,,,,,,,,,,1.4,1.1,0.9,2*39
$GNGSA,A,3,,,,,,,,,,,,,1.4,1.1,0.9,3*3F
$GNGSA,A,3,,,,,,,,,,,,,1.4,1.1,0.9,4*38
$GNGSA,A,3,,,,,,,,,,,,,1.4,1.1,0.9,5*39
$GNGSA,A,3,,,,,,,,,,,,,1.4,1.1,0.9,6*3A
$GPGSV,4,1,13,02,28,262,19,08,60,300,28,10,63,095,18,16,30,187,21,1*6A
$GPGSV,4,2,13,21,37,264,16,23,35,050,27,07,04,286,,15,03,025,,1*68
$GPGSV,4,3,13,18,09,068,,26,04,174,,27,78,119,,30,03,312,,1*6E
$GPGSV,4,4,13,32,07,133,,1*51
$GLGSV,3,1,09,82,53,310,29,73,19,327,24,79,14,213,12,81,54,052,21,1*7E
$GLGSV,3,2,09,66,42,097,,80,36,267,,65,24,033,,83,15,281,,1*77
$GLGSV,3,3,09,67,17,151,,1*43
$GBGSV,1,1,01,24,21,291,20,1*4A
$GAGSV,1,1,01,19,07,139,,7*46
$GPGSV,2,1,06,23,35,050,22,08,60,300,,10,63,095,,18,09,068,,8*61
$GPGSV,2,2,06,26,04,174,,27,78,119,,8*6A
$GBGSV,1,1,01,24,21,291,19,5*44
$GPGGA,075103.00,4728.258242,N,00752.388570,E,1,05,1.1,433.8,M,48.0,M,,*6A
$GAGGA,075103.00,4728.258242,N,00752.388570,E,1,00,1.1,433.8,M,48.0,M,,*7E
$GNGNS,075103.00,4728.258242,N,00752.388570,E,AANNNN,08,1.1,433.8,48.0,,,V*29
$GPVTG,,T,0.5,M,0.0,N,0.0,K,A*08
$GAVTG,,T,0.5,M,0.0,N,0.0,K,A*19
$GPRMC,075103.00,A,4728.258242,N,00752.388570,E,0.0,,080823,0.5,W,A,V*74
$GARMC,075103.00,A,4728.258242,N,00752.388570,E,0.0,,080823,0.5,W,A,V*65
$GPGSA,A,3,02,08,10,16,23,,,,,,,,1.4,1.1,0.9,1*2E
$GAGSA,A,3,,,,,,,,,,,,,1.4,1.1,0.9,3*30
$GBGSA,A,1,,,,,,,,,,,,,,,,*20
$GQGSA,A,1,,,,,,,,,,,,,,,,*33
$GNGSA,A,3,02,08,10,16,23,,,,,,,,1.4,1.1,0.9,1*30
$GNGSA,A,3,73,81,82,,,,,,,,,,1.4,1.1,0.9,2*39
$GNGSA,A,3,,,,,,,,,,,,,1.4,1.1,0.9,3*3F
$GNGSA,A,3,,,,,,,,,,,,,1.4,1.1,0.9,4*38
$GNGSA,A,3,,,,,,,,,,,,,1.4,1.1,0.9,5*39
$GNGSA,A,3,,,,,,,,,,,,,1.4,1.1,0.9,6*3A
$GPGSV,4,1,13,02,28,262,19,08,60,300,29,10,63,095,18,16,30,187,21,1*6B
$GPGSV,4,2,13,21,37,264,16,23,35,050,26,32,07,133,18,07,04,286,,1*67
$GPGSV,4,3,13,15,03,025,,18,09,068,,26,04,174,,27,78,119,,1*6E
$GPGSV,4,4,13,30,03,312,,1*56
$GLGSV,3,1,09,82,53,310,30,73,19,327,25,80,36,267,17,79,14,213,12,1*73
$GLGSV,3,2,09,81,54,052,18,66,42,097,,65,24,033,,83,15,281,,1*7F
$GLGSV,3,3,09,67,17,151,,1*43
$GBGSV,1,1,01,24,21,291,18,1*41
$GAGSV,1,1,01,19,07,139,,7*46
$GPGSV,2,1,05,23,35,050,23,10,63,095,,18,09,068,,26,04,174,,8*6C
$GPGSV,2,2,05,27,78,119,,8*5B
$GBGSV,1,1,01,24,21,291,19,5*44
$GPGGA,075104.00,4728.258242,N,00752.388570,E,1,05,1.1,433.8,M,48.0,M,,*6D
$GAGGA,075104.00,4728.258242,N,00752.388570,E,1,00,1.1,433.8,M,48.0,M,,*79
$GNGNS,075104.00,4728.258242,N,00752.388570,E,AANNNN,08,1.1,433.8,48.0,,,V*2E
$GPVTG,,T,0.5,M,0.0,N,0.0,K,A*08
$GAVTG,,T,0.5,M,0.0,N,0.0,K,A*19
$GPRMC,075104.00,A,4728.258242,N,00752.388570,E,0.0,,080823,0.5,W,A,V*73
$GARMC,075104.00,A,4728.258242,N,00752.388570,E,0.0,,080823,0.5,W,A,V*62
$GPGSA,A,3,02,08,10,16,23,,,,,,,,1.4,1.1,0.9,1*2E
$GAGSA,A,3,,,,,,,,,,,,,1.4,1.1,0.9,3*30
$GBGSA,A,1,,,,,,,,,,,,,,,,*20
$GQGSA,A,1,,,,,,,,,,,,,,,,*33
$GNGSA,A,3,02,08,10,16,23,,,,,,,,1.4,1.1,0.9,1*30
$GNGSA,A,3,73,81,82,,,,,,,,,,1.4,1.1,0.9,2*39
$GNGSA,A,3,,,,,,,,,,,,,1.4,1.1,0.9,3*3F
$GNGSA,A,3,,,,,,,,,,,,,1.4,1.1,0.9,4*38
$GNGSA,A,3,,,,,,,,,,,,,1.4,1.1,0.9,5*39
$GNGSA,A,3,,,,,,,,,,,,,1.4,1.1,0.9,6*3A
$GPGSV,4,1,13,02,28,262,19,08,60,300,28,10,63,095,19,16,30,187,21,1*6B
$GPGSV,4,2,13,21,37,264,16,23,35,050,27,32,07,133,18,07,04,286,,1*66
$GPGSV,4,3,13,15,03,025,,18,09,068,,26,04,174,,27,78,119,,1*6E
$GPGSV,4,4,13,30,03,312,,1*56
$GLGSV,3,1,09,82,53,310,29,73,19,327,25,80,36,267,17,79,14,213,12,1*7B
$GLGSV,3,2,09,81,54,052,18,66,42,097,,65,24,033,,83,15,281,,1*7F
$GLGSV,3,3,09,67,17,151,,1*43
$GBGSV,1,1,01,24,21,291,18,1*41
$GAGSV,1,1,01,19,07,139,,7*46
$GPGSV,2,1,06,23,35,050,23,08,60,300,,10,63,095,,18,09,068,,8*60
$GPGSV,2,2,06,26,04,174,,27,78,119,,8*6A
$GBGSV,1,1,01,24,21,291,18,5*45
$GPGGA,075105.00,4728.258242,N,00752.388570,E,1,05,1.1,433.8,M,48.0,M,,*6C
$GAGGA,075105.00,4728.258242,N,00752.388570,E,1,00,1.1,433.8,M,48.0,M,,*78
$GNGNS,075105.00,4728.258242,N,00752.388570,E,AANNNN,08,1.1,433.8,48.0,,,V*2F
$GPVTG,,T,0.5,M,0.0,N,0.0,K,A*08
$GAVTG,,T,0.5,M,0.0,N,0.0,K,A*19
$GPRMC,075105.00,A,4728.258242,N,00752.388570,E,0.0,,080823,0.5,W,A,V*72
$GARMC,075105.00,A,4728.258242,N,00752.388570,E,0.0,,080823,0.5,W,A,V*63
$GPGSA,A,3,02,08,10,16,23,,,,,,,,1.4,1.1,0.9,1*2E
$GAGSA,A,3,,,,,,,,,,,,,1.4,1.1,0.9,3*30
$GBGSA,A,1,,,,,,,,,,,,,,,,*20
$GQGSA,A,1,,,,,,,,,,,,,,,,*33
$GNGSA,A,3,02,08,10,16,23,,,,,,,,1.4,1.1,0.9,1*30
$GNGSA,A,3,73,81,82,,,,,,,,,,1.4,1.1,0.9,2*39
$GNGSA,A,3,,,,,,,,,,,,,1.4,1.1,0.9,3*3F
$GNGSA,A,3,,,,,,,,,,,,,1.4,1.1,0.9,4*38
$GNGSA,A,3,,,,,,,,,,,,,1.4,1.1,0.9,5*39
$GNGSA,A,3,,,,,,,,,,,,,1.4,1.1,0.9,6*3A
$GPGSV,4,1,13,02,28,262,19,08,60,300,29,10,63,095,19,16,30,187,21,1*6A
$GPGSV,4,2,13,21,37,264,16,23,35,050,27,32,07,133,18,07,04,286,,1*66
$GPGSV,4,3,13,15,03,025,,18,09,068,,26,04,174,,27,78,119,,1*6E
$GPGSV,4,4,13,30,03,312,,1*56
$GLGSV,3,1,09,82,53,310,30,73,19,327,25,80,36,267,17,79,14,213,12,1*73
$GLGSV,3,2,09,81,54,052,18,66,42,097,,65,24,033,,83,15,281,,1*7F
$GLGSV,3,3,09,67,17,151,,1*43
$GBGSV,1,1,01,24,21,291,18,1*41
$GAGSV,1,1,01,19,07,139,,7*46
$GPGSV,2,1,07,23,35,050,21,08,60,300,,10,63,095,,18,09,068,,8*63
$GPGSV,2,2,07,26,04,174,,27,78,119,,32,07,133,,8*5C
$GBGSV,1,1,01,24,21,291,18,5*45
$GPGGA,075106.00,4728.258242,N,00752.388570,E,1,05,1.1,433.8,M,48.0,M,,*6F
$GAGGA,075106.00,4728.258242,N,00752.388570,E,1,00,1.1,433.8,M,48.0,M,,*7B
$GNGNS,075106.00,4728.258242,N,00752.388570,E,AANNNN,08,1.1,433.8,48.0,,,V*2C
$GPVTG,,T,0.5,M,0.0,N,0.0,K,A*08
$GAVTG,,T,0.5,M,0.0,N,0.0,K,A*19
$GPRMC,075106.00,A,4728.258242,N,00752.388570,E,0.0,,080823,0.5,W,A,V*71
$GARMC,075106.00,A,4728.258242,N,00752.388570,E,0.0,,080823,0.5,W,A,V*60
$GPGSA,A,3,02,08,10,16,23,,,,,,,,1.4,1.1,0.9,1*2E
$GAGSA,A,3,,,,,,,,,,,,,1.4,1.1,0.9,3*30
$GBGSA,A,1,,,,,,,,,,,,,,,,*20
$GQGSA,A,1,,,,,,,,,,,,,,,,*33
$GNGSA,A,3,02,08,10,16,23,,,,,,,,1.4,1.1,0.9,1*30
$GNGSA,A,3,73,81,82,,,,,,,,,,1.4,1.1,0.9,2*39
$GNGSA,A,3,,,,,,,,,,,,,1.4,1.1,0.9,3*3F
$GNGSA,A,3,,,,,,,,,,,,,1.4,1.1,0.9,4*38
$GNGSA,A,3,,,,,,,,,,,,,1.4,1.1,0.9,5*39
$GNGSA,A,3,,,,,,,,,,,,,1.4,1.1,0.9,6*3A
$GPGSV,4,1,13,02,28,262,19,08,60,300,29,10,63,095,19,16,30,187,22,1*69
$GPGSV,4,2,13,21,37,264,16,23,35,050,26,32,07,133,18,07,04,286,,1*67
$GPGSV,4,3,13,15,03,025,,18,09,068,,26,04,174,,27,78,119,,1*6E
$GPGSV,4,4,13,30,03,312,,1*56
$GLGSV,3,1,09,82,53,310,30,73,19,327,24,80,36,267,17,79,14,213,12,1*72
$GLGSV,3,2,09,81,54,052,20,66,42,097,,65,24,033,,83,15,281,,1*74
$GLGSV,3,3,09,67,17,151,,1*43
$GBGSV,1,1,01,24,21,291,18,1*41
$GAGSV,1,1,01,19,07,139,,7*46
$GPGSV,2,1,07,23,35,050,21,08,60,300,,10,63,095,,18,09,068,,8*63
$GPGSV,2,2,07,26,04,174,,27,78,119,,32,07,133,,8*5C
$GBGSV,1,1,01,24,21,291,18,5*45
$GPGGA,075107.00,4728.258242,N,00752.388570,E,1,05,1.1,433.8,M,48.0,M,,*6E
$GAGGA,075107.00,4728.258242,N,00752.388570,E,1,00,1.1,433.8,M,48.0,M,,*7A
$GNGNS,075107.00,4728.258242,N,00752.388570,E,AANNNN,08,1.1,433.8,48.0,,,V*2D
$GPVTG,,T,0.5,M,0.0,N,0.0,K,A*08
$GAVTG,,T,0.5,M,0.0,N,0.0,K,A*19
$GPRMC,075107.00,A,4728.258242,N,00752.388570,E,0.0,,080823,0.5,W,A,V*70
$GARMC,075107.00,A,4728.258242,N,00752.388570,E,0.0,,080823,0.5,W,A,V*61
$GPGSA,A,3,02,08,10,16,23,,,,,,,,1.4,1.1,0.9,1*2E
$GAGSA,A,3,,,,,,,,,,,,,1.4,1.1,0.9,3*30
$GBGSA,A,1,,,,,,,,,,,,,,,,*20
$GQGSA,A,1,,,,,,,,,,,,,,,,*33
$GNGSA,A,3,02,08,10,16,23,,,,,,,,1.4,1.1,0.9,1*30
$GNGSA,A,3,73,81,82,,,,,,,,,,1.4,1.1,0.9,2*39
$GNGSA,A,3,,,,,,,,,,,,,1.4,1.1,0.9,3*3F
$GNGSA,A,3,,,,,,,,,,,,,1.4,1.1,0.9,4*38
$GNGSA,A,3,,,,,,,,,,,,,1.4,1.1,0.9,5*39
$GNGSA,A,3,,,,,,,,,,,,,1.4,1.1,0.9,6*3A
$GPGSV,4,1,13,02,28,262,19,08,60,300,29,10,63,095,20,16,30,187,22,1*63
$GPGSV,4,2,13,21,37,264,16,23,35,050,27,32,07,133,18,07,04,286,,1*66
$GPGSV,4,3,13,15,03,025,,18,09,068,,26,04,174,,27,78,119,,1*6E
$GPGSV,4,4,13,30,03,312,,1*56
$GLGSV,3,1,09,82,53,310,30,73,19,327,24,80,36,267,17,79,14,213,12,1*72
$GLGSV,3,2,09,81,54,052,20,66,42,097,,65,24,033,,83,15,281,,1*74
$GLGSV,3,3,09,67,17,151,,1*43
$GBGSV,1,1,01,24,21,291,18,1*41
$GAGSV,1,1,01,19,07,139,,7*46
$GPGSV,2,1,07,23,35,050,22,08,60,300,,10,63,095,,18,09,068,,8*60
$GPGSV,2,2,07,26,04,174,,27,78,119,,32,07,133,,8*5C
$GBGSV,1,1,01,24,21,291,18,5*45
$GPGGA,075108.00,4728.258242,N,00752.388571,E,1,04,1.2,433.8,M,48.0,M,,*62
$GAGGA,075108.00,4728.258242,N,00752.388571,E,1,00,1.2,433.8,M,48.0,M,,*77
$GNGNS,075108.00,4728.258242,N,00752.388571,E,AANNNN,07,1.2,433.8,48.0,,,V*2F
$GPVTG,,T,0.5,M,0.0,N,0.0,K,A*08
$GAVTG,,T,0.5,M,0.0,N,0.0,K,A*19
$GPRMC,075108.00,A,4728.258242,N,00752.388571,E,0.0,,080823,0.5,W,A,V*7E
$GARMC,075108.00,A,4728.258242,N,00752.388571,E,0.0,,080823,0.5,W,A,V*6F
$GPGSA,A,3,08,10,16,23,,,,,,,,,1.5,1.2,0.9,1*2E
$GAGSA,A,3,,,,,,,,,,,,,1.5,1.2,0.9,3*32
$GBGSA,A,1,,,,,,,,,,,,,,,,*20
$GQGSA,A,1,,,,,,,,,,,,,,,,*33
$GNGSA,A,3,08,10,16,23,,,,,,,,,1.5,1.2,0.9,1*30
$GNGSA,A,3,73,81,82,,,,,,,,,,1.5,1.2,0.9,2*3B
$GNGSA,A,3,,,,,,,,,,,,,1.5,1.2,0.9,3*3D
$GNGSA,A,3,,,,,,,,,,,,,1.5,1.2,0.9,4*3A
$GNGSA,A,3,,,,,,,,,,,,,1.5,1.2,0.9,5*3B
$GNGSA,A,3,,,,,,,,,,,,,1.5,1.2,0.9,6*38
$GPGSV,4,1,13,02,28,262,19,08,60,300,29,10,63,095,20,16,30,187,21,1*60
$GPGSV,4,2,13,21,37,264,16,23,35,050,28,32,07,133,18,07,04,286,,1*69
$GPGSV,4,3,13,15,03,025,,18,09,068,,26,04,174,,27,78,119,,1*6E
$GPGSV,4,4,13,30,03,312,,1*56
$GLGSV,3,1,09,82,53,310,30,73,19,327,23,80,36,267,17,79,14,213,11,1*76
$GLGSV,3,2,09,81,54,052,20,66,42,097,,65,24,033,,83,15,281,,1*74
$GLGSV,3,3,09,67,17,151,,1*43
$GBGSV,1,1,01,24,21,291,18,1*41
$GAGSV,1,1,01,19,07,139,,7*46
$GPGSV,2,1,07,23,35,050,22,08,60,300,,10,63,095,,18,09,068,,8*60
$GPGSV,2,2,07,26,04,174,,27,78,119,,32,07,133,,8*5C
$GBGSV,1,1,01,24,21,291,18,5*45
$GPGGA,075109.00,4728.258242,N,00752.388570,E,1,04,1.2,433.8,M,48.0,M,,*62
$GAGGA,075109.00,4728.258242,N,00752.388570,E,1,00,1.2,433.8,M,48.0,M,,*77
$GNGNS,075109.00,4728.258242,N,00752.388570,E,AANNNN,07,1.2,433.8,48.0,,,V*2F
$GPVTG,,T,0.5,M,0.0,N,0.0,K,A*08
$GAVTG,,T,0.5,M,0.0,N,0.0,K,A*19
$GPRMC,075109.00,A,4728.258242,N,00752.388570,E,0.0,,080823,0.5,W,A,V*7E
$GARMC,075109.00,A,4728.258242,N,00752.388570,E,0.0,,080823,0.5,W,A,V*6F
$GPGSA,A,3,08,10,16,23,,,,,,,,,1.5,1.2,0.9,1*2E
$GAGSA,A,3,,,,,,,,,,,,,1.5,1.2,0.9,3*32
$GBGSA,A,1,,,,,,,,,,,,,,,,*20
$GQGSA,A,1,,,,,,,,,,,,,,,,*33
$GNGSA,A,3,08,10,16,23,,,,,,,,,1.5,1.2,0.9,1*30
$GNGSA,A,3,73,81,82,,,,,,,,,,1.5,1.2,0.9,2*3B
$GNGSA,A,3,,,,,,,,,,,,,1.5,1.2,0.9,3*3D
$GNGSA,A,3,,,,,,,,,,,,,1.5,1.2,0.9,4*3A
$GNGSA,A,3,,,,,,,,,,,,,1.5,1.2,0.9,5*3B
$GNGSA,A,3,,,,,,,,,,,,,1.5,1.2,0.9,6*38
$GPGSV,4,1,13,02,28,262,19,08,60,300,29,10,63,095,20,16,30,187,21,1*60
$GPGSV,4,2,13,21,37,264,16,23,35,050,28,32,07,133,18,07,04,286,,1*69
$GPGSV,4,3,13,15,03,025,,18,09,068,,26,04,174,,27,78,119,,1*6E
$GPGSV,4,4,13,30,03,312,,1*56
$GLGSV,3,1,09,82,53,310,30,73,19,327,22,80,36,267,17,79,14,213,11,1*77
$GLGSV,3,2,09,81,54,052,19,66,42,097,,65,24,033,,83,15,281,,1*7E
$GLGSV,3,3,09,67,17,151,,1*43
$GBGSV,1,1,01,24,21,291,18,1*41
$GAGSV,1,1,01,19,07,139,,7*46
$GPGSV,2,1,07,23,35,050,21,08,60,300,,10,63,095,,18,09,068,,8*63
$GPGSV,2,2,07,26,04,174,,27,78,119,,32,07,133,,8*5C
$GBGSV,1,1,01,24,21,291,17,5*4A
$GPGGA,075110.00,4728.258242,N,00752.388570,E,1,04,1.2,433.8,M,48.0,M,,*6A
$GAGGA,075110.00,4728.258242,N,00752.388570,E,1,00,1.2,433.8,M,48.0,M,,*7F
$GNGNS,075110.00,4728.258242,N,00752.388570,E,AANNNN,07,1.2,433.8,48.0,,,V*27
$GPVTG,,T,0.5,M,0.0,N,0.0,K,A*08
$GAVTG,,T,0.5,M,0.0,N,0.0,K,A*19
$GPRMC,075110.00,A,4728.258242,N,00752.388570,E,0.0,,080823,0.5,W,A,V*76
$GARMC,075110.00,A,4728.258242,N,00752.388570,E,0.0,,080823,0.5,W,A,V*67
$GPGSA,A,3,08,10,16,23,,,,,,,,,1.5,1.2,0.9,1*2E
$GAGSA,A,3,,,,,,,,,,,,,1.5,1.2,0.9,3*32
$GBGSA,A,1,,,,,,,,,,,,,,,,*20
$GQGSA,A,1,,,,,,,,,,,,,,,,*33
$GNGSA,A,3,08,10,16,23,,,,,,,,,1.5,1.2,0.9,1*30
$GNGSA,A,3,73,81,82,,,,,,,,,,1.5,1.2,0.9,2*3B
$GNGSA,A,3,,,,,,,,,,,,,1.5,1.2,0.9,3*3D
$GNGSA,A,3,,,,,,,,,,,,,1.5,1.2,0.9,4*3A
$GNGSA,A,3,,,,,,,,,,,,,1.5,1.2,0.9,5*3B
$GNGSA,A,3,,,,,,,,,,,,,1.5,1.2,0.9,6*38
$GPGSV,4,1,13,02,28,262,19,08,60,300,28,10,63,095,19,16,30,187,21,1*6B
$GPGSV,4,2,13,21,37,264,13,23,35,050,28,32,07,133,18,07,04,286,,1*6C
$GPGSV,4,3,13,15,03,025,,18,09,068,,26,04,174,,27,78,119,,1*6E
$GPGSV,4,4,13,30,03,312,,1*56
$GLGSV,3,1,09,82,53,310,29,73,19,327,23,80,36,267,17,79,14,213,11,1*7E
$GLGSV,3,2,09,81,54,052,19,66,42,097,,65,24,033,,83,15,281,,1*7E
$GLGSV,3,3,09,67,17,151,,1*43
$GBGSV,1,1,01,24,21,291,18,1*41
$GAGSV,1,1,01,19,07,139,,7*46
$GPGSV,2,1,07,23,35,050,23,08,60,300,,10,63,095,,18,09,068,,8*61
$GPGSV,2,2,07,26,04,174,,27,78,119,,32,07,133,,8*5C
$GBGSV,1,1,01,24,21,291,17,5*4A
$GPGGA,075111.00,4728.258242,N,00752.388570,E,1,04,1.2,433.8,M,48.0,M,,*6B
$GAGGA,075111.00,4728.258242,N,00752.388570,E,1,00,1.2,433.8,M,48.0,M,,*7E
$GNGNS,075111.00,4728.258242,N,00752.388570,E,AANNNN,07,1.2,433.8,48.0,,,V*26
$GPVTG,,T,0.5,M,0.0,N,0.0,K,A*08
$GAVTG,,T,0.5,M,0.0,N,0.0,K,A*19
$GPRMC,075111.00,A,4728.258242,N,00752.388570,E,0.0,,080823,0.5,W,A,V*77
$GARMC,075111.00,A,4728.258242,N,00752.388570,E,0.0,,080823,0.5,W,A,V*66
$GPGSA,A,3,08,10,16,23,,,,,,,,,1.5,1.2,0.9,1*2E
$GAGSA,A,3,,,,,,,,,,,,,1.5,1.2,0.9,3*32
$GBGSA,A,1,,,,,,,,,,,,,,,,*20
$GQGSA,A,1,,,,,,,,,,,,,,,,*33
$GNGSA,A,3,08,10,16,23,,,,,,,,,1.5,1.2,0.9,1*30
$GNGSA,A,3,73,81,82,,,,,,,,,,1.5,1.2,0.9,2*3B
$GNGSA,A,3,,,,,,,,,,,,,1.5,1.2,0.9,3*3D
$GNGSA,A,3,,,,,,,,,,,,,1.5,1.2,0.9,4*3A
$GNGSA,A,3,,,,,,,,,,,,,1.5,1.2,0.9,5*3B
$GNGSA,A,3,,,,,,,,,,,,,1.5,1.2,0.9,6*38
$GPGSV,4,1,13,02,28,262,19,08,60,300,28,10,63,095,19,16,30,187,23,1*69
$GPGSV,4,2,13,21,37,264,13,23,35,050,28,32,07,133,18,07,04,286,,1*6C
$GPGSV,4,3,13,15,03,025,,18,09,068,,26,04,174,,27,78,119,,1*6E
$GPGSV,4,4,13,30,03,312,,1*56
$GLGSV,3,1,09,82,53,310,29,73,19,327,22,80,36,267,19,79,14,213,11,1*71
$GLGSV,3,2,09,81,54,052,20,66,42,097,,65,24,033,,83,15,281,,1*74
$GLGSV,3,3,09,67,17,151,,1*43
$GBGSV,1,1,01,24,21,291,18,1*41
$GAGSV,1,1,01,19,07,139,,7*46
$GPGSV,2,1,07,23,35,050,23,08,60,300,,10,63,095,,18,09,068,,8*61
$GPGSV,2,2,07,26,04,174,,27,78,119,,32,07,133,,8*5C
$GBGSV,1,1,01,24,21,291,17,5*4A
$GPGGA,075112.00,4728.258242,N,00752.388570,E,1,04,1.2,433.8,M,48.0,M,,*68
$GAGGA,075112.00,4728.258242,N,00752.388570,E,1,00,1.2,433.8,M,48.0,M,,*7D
$GNGNS,075112.00,4728.258242,N,00752.388570,E,AANNNN,07,1.2,433.8,48.0,,,V*25
$GPVTG,,T,0.5,M,0.0,N,0.0,K,A*08
$GAVTG,,T,0.5,M,0.0,N,0.0,K,A*19
$GPRMC,075112.00,A,4728.258242,N,00752.388570,E,0.0,,080823,0.5,W,A,V*74
$GARMC,075112.00,A,4728.258242,N,00752.388570,E,0.0,,080823,0.5,W,A,V*65
$GPGSA,A,3,08,10,16,23,,,,,,,,,1.5,1.2,0.9,1*2E
$GAGSA,A,3,,,,,,,,,,,,,1.5,1.2,0.9,3*32
$GBGSA,A,1,,,,,,,,,,,,,,,,*20
$GQGSA,A,1,,,,,,,,,,,,,,,,*33
$GNGSA,A,3,08,10,16,23,,,,,,,,,1.5,1.2,0.9,1*30
$GNGSA,A,3,73,81,82,,,,,,,,,,1.5,1.2,0.9,2*3B
$GNGSA,A,3,,,,,,,,,,,,,1.5,1.2,0.9,3*3D
$GNGSA,A,3,,,,,,,,,,,,,1.5,1.2,0.9,4*3A
$GNGSA,A,3,,,,,,,,,,,,,1.5,1.2,0.9,5*3B
$GNGSA,A,3,,,,,,,,,,,,,1.5,1.2,0.9,6*38
$GPGSV,4,1,13,02,28,262,19,08,60,300,29,10,63,095,19,16,30,187,23,1*68
$GPGSV,4,2,13,21,37,264,13,23,35,050,28,32,07,133,18,07,04,286,,1*6C
$GPGSV,4,3,13,15,03,025,,18,09,068,,26,04,174,,27,78,119,,1*6E
$GPGSV,4,4,13,30,03,312,,1*56
$GLGSV,3,1,09,82,53,310,30,73,19,327,22,80,36,267,19,79,14,213,11,1*79
$GLGSV,3,2,09,81,54,052,20,66,42,097,,65,24,033,,83,15,281,,1*74
$GLGSV,3,3,09,67,17,151,,1*43
$GBGSV,1,1,01,24,21,291,18,1*41
$GAGSV,1,1,01,19,07,139,,7*46
$GPGSV,2,1,07,23,35,050,23,08,60,300,,10,63,095,,18,09,068,,8*61
$GPGSV,2,2,07,26,04,174,,27,78,119,,32,07,133,,8*5C
$GBGSV,1,1,01,24,21,291,17,5*4A
$GPGGA,075113.00,4728.258241,N,00752.388570,E,1,04,1.2,433.8,M,48.0,M,,*6A
$GAGGA,075113.00,4728.258241,N,00752.388570,E,1,00,1.2,433.8,M,48.0,M,,*7F
$GNGNS,075113.00,4728.258241,N,00752.388570,E,AANNNN,07,1.2,433.8,48.0,,,V*27
$GPVTG,,T,0.5,M,0.0,N,0.0,K,A*08
$GAVTG,,T,0.5,M,0.0,N,0.0,K,A*19
$GPRMC,075113.00,A,4728.258241,N,00752.388570,E,0.0,,080823,0.5,W,A,V*76
$GARMC,075113.00,A,4728.258241,N,00752.388570,E,0.0,,080823,0.5,W,A,V*67
$GPGSA,A,3,08,10,16,23,,,,,,,,,1.5,1.2,0.9,1*2E
$GAGSA,A,3,,,,,,,,,,,,,1.5,1.2,0.9,3*32
$GBGSA,A,1,,,,,,,,,,,,,,,,*20
$GQGSA,A,1,,,,,,,,,,,,,,,,*33
$GNGSA,A,3,08,10,16,23,,,,,,,,,1.5,1.2,0.9,1*30
$GNGSA,A,3,73,81,82,,,,,,,,,,1.5,1.2,0.9,2*3B
$GNGSA,A,3,,,,,,,,,,,,,1.5,1.2,0.9,3*3D
$GNGSA,A,3,,,,,,,,,,,,,1.5,1.2,0.9,4*3A
$GNGSA,A,3,,,,,,,,,,,,,1.5,1.2,0.9,5*3B
$GNGSA,A,3,,,,,,,,,,,,,1.5,1.2,0.9,6*38
$GPGSV,4,1,13,02,28,262,14,08,60,300,28,10,63,095,19,16,30,187,21,1*66
$GPGSV,4,2,13,21,37,264,13,23,35,050,28,32,07,133,18,07,04,286,,1*6C
$GPGSV,4,3,13,15,03,025,,18,09,068,,26,04,174,,27,78,119,,1*6E
$GPGSV,4,4,13,30,03,312,,1*56
$GLGSV,3,1,09,82,53,310,30,73,19,327,23,80,36,267,19,79,14,213,11,1*78
$GLGSV,3,2,09,81,54,052,20,66,42,097,,65,24,033,,83,15,281,,1*74
$GLGSV,3,3,09,67,17,151,,1*43
$GBGSV,1,1,01,24,21,291,18,1*41
$GAGSV,1,1,01,19,07,139,,7*46
$GPGSV,2,1,06,23,35,050,21,08,60,300,,18,09,068,,26,04,174,,8*68
$GPGSV,2,2,06,27,78,119,,32,07,133,,8*6F
$GBGSV,1,1,01,24,21,291,17,5*4A
$GPGGA,075114.00,4728.258241,N,00752.388570,E,1,05,1.1,433.8,M,48.0,M,,*6F
$GAGGA,075114.00,4728.258241,N,00752.388570,E,1,00,1.1,433.8,M,48.0,M,,*7B
$GNGNS,075114.00,4728.258241,N,00752.388570,E,AANNNN,08,1.1,433.8,48.0,,,V*2C
$GPVTG,,T,0.5,M,0.0,N,0.0,K,A*08
$GAVTG,,T,0.5,M,0.0,N,0.0,K,A*19
$GPRMC,075114.00,A,4728.258241,N,00752.388570,E,0.0,,080823,0.5,W,A,V*71
$GARMC,075114.00,A,4728.258241,N,00752.388570,E,0.0,,080823,0.5,W,A,V*60
$GPGSA,A,3,02,08,10,16,23,,,,,,,,1.4,1.1,0.9,1*2E
$GAGSA,A,3,,,,,,,,,,,,,1.4,1.1,0.9,3*30
$GBGSA,A,1,,,,,,,,,,,,,,,,*20
$GQGSA,A,1,,,,,,,,,,,,,,,,*33
$GNGSA,A,3,02,08,10,16,23,,,,,,,,1.4,1.1,0.9,1*30
$GNGSA,A,3,73,81,82,,,,,,,,,,1.4,1.1,0.9,2*39
$GNGSA,A,3,,,,,,,,,,,,,1.4,1.1,0.9,3*3F
$GNGSA,A,3,,,,,,,,,,,,,1.4,1.1,0.9,4*38
$GNGSA,A,3,,,,,,,,,,,,,1.4,1.1,0.9,5*39
$GNGSA,A,3,,,,,,,,,,,,,1.4,1.1,0.9,6*3A
$GPGSV,4,1,13,02,28,262,14,08,60,300,28,10,63,095,19,16,30,187,21,1*66
$GPGSV,4,2,13,21,37,264,13,23,35,050,28,32,07,133,18,07,04,286,,1*6C
$GPGSV,4,3,13,15,03,025,,18,09,068,,26,04,174,,27,78,119,,1*6E
$GPGSV,4,4,13,30,03,312,,1*56
$GLGSV,3,1,09,82,53,310,29,73,19,327,23,80,36,267,19,79,14,213,11,1*70
$GLGSV,3,2,09,81,54,052,20,66,42,097,,65,24,033,,83,15,281,,1*74
$GLGSV,3,3,09,67,17,151,,1*43
$GBGSV,1,1,01,24,21,291,18,1*41
$GAGSV,1,1,01,19,07,139,,7*46
$GPGSV,2,1,07,23,35,050,22,08,60,300,,10,63,095,,18,09,068,,8*60
$GPGSV,2,2,07,26,04,174,,27,78,119,,32,07,133,,8*5C
$GBGSV,1,1,01,24,21,291,17,5*4A
$GPGGA,075115.00,4728.258241,N,00752.388570,E,1,05,1.1,433.8,M,48.0,M,,*6E
$GAGGA,075115.00,4728.258241,N,00752.388570,E,1,00,1.1,433.8,M,48.0,M,,*7A
$GNGNS,075115.00,4728.258241,N,00752.388570,E,AANNNN,08,1.1,433.8,48.0,,,V*2D
$GPVTG,,T,0.5,M,0.0,N,0.0,K,A*08
$GAVTG,,T,0.5,M,0.0,N,0.0,K,A*19
$GPRMC,075115.00,A,4728.258241,N,00752.388570,E,0.0,,080823,0.5,W,A,V*70
$GARMC,075115.00,A,4728.258241,N,00752.388570,E,0.0,,080823,0.5,W,A,V*61
$GPGSA,A,3,02,08,10,16,23,,,,,,,,1.4,1.1,0.9,1*2E
$GAGSA,A,3,,,,,,,,,,,,,1.4,1.1,0.9,3*30
$GBGSA,A,1,,,,,,,,,,,,,,,,*20
$GQGSA,A,1,,,,,,,,,,,,,,,,*33
$GNGSA,A,3,02,08,10,16,23,,,,,,,,1.4,1.1,0.9,1*30
$GNGSA,A,3,73,81,82,,,,,,,,,,1.4,1.1,0.9,2*39
$GNGSA,A,3,,,,,,,,,,,,,1.4,1.1,0.9,3*3F
$GNGSA,A,3,,,,,,,,,,,,,1.4,1.1,0.9,4*38
$GNGSA,A,3,,,,,,,,,,,,,1.4,1.1,0.9,5*39
$GNGSA,A,3,,,,,,,,,,,,,1.4,1.1,0.9,6*3A
$GPGSV,4,1,13,02,28,262,14,08,60,300,28,10,63,095,19,16,30,187,22,1*65
$GPGSV,4,2,13,21,37,264,13,23,35,050,29,32,07,133,16,07,04,286,,1*63
$GPGSV,4,3,13,15,03,025,,18,09,068,,26,04,174,,27,78,119,,1*6E
$GPGSV,4,4,13,30,03,312,,1*56
$GLGSV,3,1,09,82,53,310,29,73,19,327,21,80,36,267,19,79,14,213,11,1*72
$GLGSV,3,2,09,81,54,052,20,66,42,097,,65,24,033,,83,15,281,,1*74
$GLGSV,3,3,09,67,17,151,,1*43
$GBGSV,1,1,01,24,21,291,21,1*4B
$GAGSV,1,1,01,19,07,139,,7*46
$GPGSV,2,1,07,23,35,050,22,08,60,300,,10,63,095,,18,09,068,,8*60
$GPGSV,2,2,07,26,04,174,,27,78,119,,32,07,133,,8*5C
$GBGSV,1,1,01,24,21,291,16,5*4B
$GPGGA,075116.00,4728.258241,N,00752.388570,E,1,05,1.1,433.8,M,48.0,M,,*6D
$GAGGA,075116.00,4728.258241,N,00752.388570,E,1,00,1.1,433.8,M,48.0,M,,*79
$GNGNS,075116.00,4728.258241,N,00752.388570,E,AANNNN,08,1.1,433.8,48.0,,,V*2E
$GPVTG,,T,0.5,M,0.0,N,0.0,K,A*08
$GAVTG,,T,0.5,M,0.0,N,0.0,K,A*19
$GPRMC,075116.00,A,4728.258241,N,00752.388570,E,0.0,,080823,0.5,W,A,V*73
$GARMC,075116.00,A,4728.258241,N,00752.388570,E,0.0,,080823,0.5,W,A,V*62
$GPGSA,A,3,02,08,10,16,23,,,,,,,,1.4,1.1,0.9,1*2E
$GAGSA,A,3,,,,,,,,,,,,,1.4,1.1,0.9,3*30
$GBGSA,A,1,,,,,,,,,,,,,,,,*20
$GQGSA,A,1,,,,,,,,,,,,,,,,*33
$GNGSA,A,3,02,08,10,16,23,,,,,,,,1.4,1.1,0.9,1*30
$GNGSA,A,3,73,81,82,,,,,,,,,,1.4,1.1,0.9,2*39
$GNGSA,A,3,,,,,,,,,,,,,1.4,1.1,0.9,3*3F
$GNGSA,A,3,,,,,,,,,,,,,1.4,1.1,0.9,4*38
$GNGSA,A,3,,,,,,,,,,,,,1.4,1.1,0.9,5*39
$GNGSA,A,3,,,,,,,,,,,,,1.4,1.1,0.9,6*3A
$GPGSV,4,1,13,02,28,262,14,08,60,300,29,10,63,095,19,16,30,187,23,1*65
$GPGSV,4,2,13,21,37,264,13,23,35,050,29,32,07,133,16,07,04,286,,1*63
$GPGSV,4,3,13,15,03,025,,18,09,068,,26,04,174,,27,78,119,,1*6E
$GPGSV,4,4,13,30,03,312,,1*56
$GLGSV,3,1,09,82,53,310,29,73,19,327,22,80,36,267,19,79,14,213,11,1*71
$GLGSV,3,2,09,81,54,052,20,66,42,097,,65,24,033,,83,15,281,,1*74
$GLGSV,3,3,09,67,17,151,,1*43
$GBGSV,1,1,01,24,21,291,21,1*4B
$GAGSV,1,1,01,19,07,139,,7*46
$GPGSV,2,1,05,23,35,050,23,08,60,300,,10,63,095,,27,78,119,,8*6E
$GPGSV,2,2,05,32,07,133,,8*5F
$GBGSV,1,1,01,24,21,291,16,5*4B
$GPGGA,075117.00,4728.258242,N,00752.388570,E,1,05,1.1,433.8,M,48.0,M,,*6F
$GAGGA,075117.00,4728.258242,N,00752.388570,E,1,00,1.1,433.8,M,48.0,M,,*7B
$GNGNS,075117.00,4728.258242,N,00752.388570,E,AANNNN,08,1.1,433.8,48.0,,,V*2C
$GPVTG,,T,0.5,M,0.0,N,0.0,K,A*08
$GAVTG,,T,0.5,M,0.0,N,0.0,K,A*19
$GPRMC,075117.00,A,4728.258242,N,00752.388570,E,0.0,,080823,0.5,W,A,V*71
$GARMC,075117.00,A,4728.258242,N,00752.388570,E,0.0,,080823,0.5,W,A,V*60
$GPGSA,A,3,02,08,10,16,23,,,,,,,,1.4,1.1,0.9,1*2E
$GAGSA,A,3,,,,,,,,,,,,,1.4,1.1,0.9,3*30
$GBGSA,A,1,,,,,,,,,,,,,,,,*20
$GQGSA,A,1,,,,,,,,,,,,,,,,*33
$GNGSA,A,3,02,08,10,16,23,,,,,,,,1.4,1.1,0.9,1*30
$GNGSA,A,3,73,81,82,,,,,,,,,,1.4,1.1,0.9,2*39
$GNGSA,A,3,,,,,,,,,,,,,1.4,1.1,0.9,3*3F
$GNGSA,A,3,,,,,,,,,,,,,1.4,1.1,0.9,4*38
$GNGSA,A,3,,,,,,,,,,,,,1.4,1.1,0.9,5*39
$GNGSA,A,3,,,,,,,,,,,,,1.4,1.1,0.9,6*3A
$GPGSV,4,1,13,02,28,262,14,08,60,300,29,10,63,095,19,16,30,187,23,1*65
$GPGSV,4,2,13,21,37,264,13,23,35,050,29,32,07,133,16,07,04,286,,1*63
$GPGSV,4,3,13,15,03,025,,18,09,068,,26,04,174,,27,78,119,,1*6E
$GPGSV,4,4,13,30,03,312,,1*56
$GLGSV,3,1,09,82,53,310,28,73,19,327,22,80,36,267,19,79,14,213,11,1*70
$GLGSV,3,2,09,81,54,052,17,66,42,097,,65,24,033,,83,15,281,,1*70
$GLGSV,3,3,09,67,17,151,,1*43
$GBGSV,1,1,01,24,21,291,21,1*4B
$GAGSV,1,1,01,19,07,139,,7*46
$GPGSV,2,1,06,23,35,050,23,08,60,300,,10,63,095,,18,09,068,,8*60
$GPGSV,2,2,06,26,04,174,,32,07,133,,8*6E
$GBGSV,1,1,01,24,21,291,16,5*4B
$GPGGA,075118.00,4728.258241,N,00752.388570,E,1,05,1.1,433.8,M,48.0,M,,*63
$GAGGA,075118.00,4728.258241,N,00752.388570,E,1,00,1.1,433.8,M,48.0,M,,*77
$GNGNS,075118.00,4728.258241,N,00752.388570,E,AANNNN,08,1.1,433.8,48.0,,,V*20
$GPVTG,,T,0.5,M,0.0,N,0.0,K,A*08
$GAVTG,,T,0.5,M,0.0,N,0.0,K,A*19
$GPRMC,075118.00,A,4728.258241,N,00752.388570,E,0.0,,080823,0.5,W,A,V*7D
$GARMC,075118.00,A,4728.258241,N,00752.388570,E,0.0,,080823,0.5,W,A,V*6C
$GPGSA,A,3,02,08,10,16,23,,,,,,,,1.4,1.1,0.9,1*2E
$GAGSA,A,3,,,,,,,,,,,,,1.4,1.1,0.9,3*30
$GBGSA,A,1,,,,,,,,,,,,,,,,*20
$GQGSA,A,1,,,,,,,,,,,,,,,,*33
$GNGSA,A,3,02,08,10,16,23,,,,,,,,1.4,1.1,0.9,1*30
$GNGSA,A,3,73,81,82,,,,,,,,,,1.4,1.1,0.9,2*39
$GNGSA,A,3,,,,,,,,,,,,,1.4,1.1,0.9,3*3F
$GNGSA,A,3,,,,,,,,,,,,,1.4,1.1,0.9,4*38
$GNGSA,A,3,,,,,,,,,,,,,1.4,1.1,0.9,5*39
$GNGSA,A,3,,,,,,,,,,,,,1.4,1.1,0.9,6*3A
$GPGSV,4,1,13,02,28,262,14,08,60,300,29,10,63,095,19,16,30,187,23,1*65
$GPGSV,4,2,13,21,37,264,13,23,35,050,29,32,07,133,16,07,04,286,,1*63
$GPGSV,4,3,13,15,03,025,,18,09,068,,26,04,174,,27,78,119,,1*6E
$GPGSV,4,4,13,30,03,312,,1*56
$GLGSV,3,1,09,82,53,310,28,73,19,327,23,80,36,267,19,79,14,213,11,1*71
$GLGSV,3,2,09,81,54,052,17,66,42,097,,65,24,033,,83,15,281,,1*70
$GLGSV,3,3,09,67,17,151,,1*43
$GBGSV,1,1,01,24,21,291,21,1*4B
$GAGSV,1,1,01,19,07,139,,7*46
$GPGSV,2,1,07,23,35,050,21,08,60,300,,10,63,095,,18,09,068,,8*63
$GPGSV,2,2,07,26,04,174,,27,78,119,,32,07,133,,8*5C
$GBGSV,1,1,01,24,21,291,18,5*45
$GPGGA,075119.00,4728.258241,N,00752.388570,E,1,05,1.1,433.8,M,48.0,M,,*62
$GAGGA,075119.00,4728.258241,N,00752.388570,E,1,00,1.1,433.8,M,48.0,M,,*76
$GNGNS,075119.00,4728.258241,N,00752.388570,E,AANNNN,08,1.1,433.8,48.0,,,V*21
$GPVTG,,T,0.5,M,0.0,N,0.0,K,A*08
$GAVTG,,T,0.5,M,0.0,N,0.0,K,A*19
$GPRMC,075119.00,A,4728.258241,N,00752.388570,E,0.0,,080823,0.5,W,A,V*7C
$GARMC,075119.00,A,4728.258241,N,00752.388570,E,0.0,,080823,0.5,W,A,V*6D
$GPGSA,A,3,02,08,10,16,23,,,,,,,,1.4,1.1,0.9,1*2E
$GAGSA,A,3,,,,,,,,,,,,,1.4,1.1,0.9,3*30
$GBGSA,A,1,,,,,,,,,,,,,,,,*20
$GQGSA,A,1,,,,,,,,,,,,,,,,*33
$GNGSA,A,3,02,08,10,16,23,,,,,,,,1.4,1.1,0.9,1*30
$GNGSA,A,3,73,81,82,,,,,,,,,,1.4,1.1,0.9,2*39
$GNGSA,A,3,,,,,,,,,,,,,1.4,1.1,0.9,3*3F
$GNGSA,A,3,,,,,,,,,,,,,1.4,1.1,0.9,4*38
$GNGSA,A,3,,,,,,,,,,,,,1.4,1.1,0.9,5*39
$GNGSA,A,3,,,,,,,,,,,,,1.4,1.1,0.9,6*3A
$GPGSV,4,1,13,02,28,262,14,08,60,300,30,10,63,095,19,16,30,187,22,1*6C
$GPGSV,4,2,13,21,37,264,13,23,35,050,29,32,07,133,16,07,04,286,,1*63
$GPGSV,4,3,13,15,03,025,,18,09,068,,26,04,174,,27,78,119,,1*6E
$GPGSV,4,4,13,30,03,312,,1*56
$GLGSV,3,1,09,82,53,310,29,73,19,327,23,80,36,267,19,79,14,213,11,1*70
$GLGSV,3,2,09,81,54,052,17,66,42,097,,65,24,033,,83,15,281,,1*70
$GLGSV,3,3,09,67,17,151,,1*43
$GBGSV,1,1,01,24,21,291,21,1*4B
$GAGSV,1,1,01,19,07,139,,7*46
$GPGSV,2,1,07,23,35,050,21,08,60,300,,10,63,095,,18,09,068,,8*63
$GPGSV,2,2,07,26,04,174,,27,78,119,,32,07,133,,8*5C
$GBGSV,1,1,01,24,21,291,18,5*45
$GPGGA,075120.00,4728.258241,N,00752.388570,E,1,04,1.2,433.8,M,48.0,M,,*6A
$GAGGA,075120.00,4728.258241,N,00752.388570,E,1,00,1.2,433.8,M,48.0,M,,*7F
$GNGNS,075120.00,4728.258241,N,00752.388570,E,AANNNN,07,1.2,433.8,48.0,,,V*27
$GPVTG,,T,0.5,M,0.0,N,0.0,K,A*08
$GAVTG,,T,0.5,M,0.0,N,0.0,K,A*19
$GPRMC,075120.00,A,4728.258241,N,00752.388570,E,0.0,,080823,0.5,W,A,V*76
$GARMC,075120.00,A,4728.258241,N,00752.388570,E,0.0,,080823,0.5,W,A,V*67
$GPGSA,A,3,08,10,16,23,,,,,,,,,1.5,1.2,0.9,1*2E
$GAGSA,A,3,,,,,,,,,,,,,1.5,1.2,0.9,3*32
$GBGSA,A,1,,,,,,,,,,,,,,,,*20
$GQGSA,A,1,,,,,,,,,,,,,,,,*33
$GNGSA,A,3,08,10,16,23,,,,,,,,,1.5,1.2,0.9,1*30
$GNGSA,A,3,73,81,82,,,,,,,,,,1.5,1.2,0.9,2*3B
$GNGSA,A,3,,,,,,,,,,,,,1.5,1.2,0.9,3*3D
$GNGSA,A,3,,,,,,,,,,,,,1.5,1.2,0.9,4*3A
$GNGSA,A,3,,,,,,,,,,,,,1.5,1.2,0.9,5*3B
$GNGSA,A,3,,,,,,,,,,,,,1.5,1.2,0.9,6*38
$GPGSV,4,1,13,02,28,262,14,08,60,300,29,10,63,095,20,16,30,187,22,1*6E
$GPGSV,4,2,13,21,37,264,13,23,35,050,29,32,07,133,16,07,04,286,,1*63
$GPGSV,4,3,13,15,03,025,,18,09,068,,26,04,174,,27,78,119,,1*6E
$GPGSV,4,4,13,30,03,312,,1*56
$GLGSV,3,1,09,82,53,310,28,73,19,327,24,80,36,267,19,79,14,213,11,1*76
$GLGSV,3,2,09,81,54,052,17,66,42,097,,65,24,033,,83,15,281,,1*70
$GLGSV,3,3,09,67,17,151,,1*43
$GBGSV,1,1,01,24,21,291,18,1*41
$GAGSV,1,1,01,19,07,139,,7*46
$GPGSV,2,1,07,23,35,050,21,08,60,300,,10,63,095,,18,09,068,,8*63
$GPGSV,2,2,07,26,04,174,,27,78,119,,32,07,133,,8*5C
$GBGSV,1,1,01,24,21,291,18,5*45
$GPGGA,075121.00,4728.258241,N,00752.388570,E,1,04,1.2,433.8,M,48.0,M,,*6B
$GAGGA,075121.00,4728.258241,N,00752.388570,E,1,00,1.2,433.8,M,48.0,M,,*7E
$GNGNS,075121.00,4728.258241,N,00752.388570,E,AANNNN,07,1.2,433.8,48.0,,,V*26
$GPVTG,,T,0.5,M,0.0,N,0.0,K,A*08
$GAVTG,,T,0.5,M,0.0,N,0.0,K,A*19
$GPRMC,075121.00,A,4728.258241,N,00752.388570,E,0.0,,080823,0.5,W,A,V*77
$GARMC,075121.00,A,4728.258241,N,00752.388570,E,0.0,,080823,0.5,W,A,V*66
$GPGSA,A,3,08,10,16,23,,,,,,,,,1.5,1.2,0.9,1*2E
$GAGSA,A,3,,,,,,,,,,,,,1.5,1.2,0.9,3*32
$GBGSA,A,1,,,,,,,,,,,,,,,,*20
$GQGSA,A,1,,,,,,,,,,,,,,,,*33
$GNGSA,A,3,08,10,16,23,,,,,,,,,1.5,1.2,0.9,1*30
$GNGSA,A,3,73,81,82,,,,,,,,,,1.5,1.2,0.9,2*3B
$GNGSA,A,3,,,,,,,,,,,,,1.5,1.2,0.9,3*3D
$GNGSA,A,3,,,,,,,,,,,,,1.5,1.2,0.9,4*3A
$GNGSA,A,3,,,,,,,,,,,,,1.5,1.2,0.9,5*3B
$GNGSA,A,3,,,,,,,,,,,,,1.5,1.2,0.9,6*38
$GPGSV,4,1,13,02,28,262,14,08,60,300,30,10,63,095,20,16,30,187,22,1*66
$GPGSV,4,2,13,21,37,264,13,23,35,050,29,32,07,133,16,07,04,286,,1*63
$GPGSV,4,3,13,15,03,025,,18,09,068,,26,04,174,,27,78,119,,1*6E
$GPGSV,4,4,13,30,03,312,,1*56
$GLGSV,3,1,09,82,53,310,28,73,19,327,23,80,36,267,19,79,14,213,11,1*71
$GLGSV,3,2,09,81,54,052,17,66,42,097,,65,24,033,,83,15,281,,1*70
$GLGSV,3,3,09,67,17,151,,1*43
$GBGSV,1,1,01,24,21,291,18,1*41
$GAGSV,1,1,01,19,07,139,,7*46
$GPGSV,2,1,07,23,35,050,22,08,60,300,,10,63,095,,18,09,068,,8*60
$GPGSV,2,2,07,26,04,174,,27,78,119,,32,07,133,,8*5C
$GBGSV,1,1,01,24,21,291,18,5*45
$GPGGA,075122.00,4728.258241,N,00752.388571,E,1,04,1.2,433.8,M,48.0,M,,*69
$GAGGA,075122.00,4728.258241,N,00752.388571,E,1,00,1.2,433.8,M,48.0,M,,*7C
$GNGNS,075122.00,4728.258241,N,00752.388571,E,AANNNN,07,1.2,433.8,48.0,,,V*24
$GPVTG,,T,0.5,M,0.0,N,0.0,K,A*08
$GAVTG,,T,0.5,M,0.0,N,0.0,K,A*19
$GPRMC,075122.00,A,4728.258241,N,00752.388571,E,0.0,,080823,0.5,W,A,V*75
$GARMC,075122.00,A,4728.258241,N,00752.388571,E,0.0,,080823,0.5,W,A,V*64
$GPGSA,A,3,08,10,16,23,,,,,,,,,1.5,1.2,0.9,1*2E
$GAGSA,A,3,,,,,,,,,,,,,1.5,1.2,0.9,3*32
$GBGSA,A,1,,,,,,,,,,,,,,,,*20
$GQGSA,A,1,,,,,,,,,,,,,,,,*33
$GNGSA,A,3,08,10,16,23,,,,,,,,,1.5,1.2,0.9,1*30
$GNGSA,A,3,73,81,82,,,,,,,,,,1.5,1.2,0.9,2*3B
$GNGSA,A,3,,,,,,,,,,,,,1.5,1.2,0.9,3*3D
$GNGSA,A,3,,,,,,,,,,,,,1.5,1.2,0.9,4*3A
$GNGSA,A,3,,,,,,,,,,,,,1.5,1.2,0.9,5*3B
$GNGSA,A,3,,,,,,,,,,,,,1.5,1.2,0.9,6*38
$GPGSV,4,1,13,02,28,262,14,08,60,300,30,10,63,095,20,16,30,187,22,1*66
$GPGSV,4,2,13,21,37,264,12,23,35,050,29,32,07,133,16,07,04,286,,1*62
$GPGSV,4,3,13,15,03,025,,18,09,068,,26,04,174,,27,78,119,,1*6E
$GPGSV,4,4,13,30,03,312,,1*56
$GLGSV,3,1,09,82,53,310,29,73,19,327,23,80,36,267,15,79,14,213,11,1*7C
$GLGSV,3,2,09,81,54,052,18,66,42,097,,65,24,033,,83,15,281,,1*7F
$GLGSV,3,3,09,67,17,151,,1*43
$GBGSV,1,1,01,24,21,291,18,1*41
$GAGSV,1,1,01,19,07,139,,7*46
$GPGSV,2,1,07,23,35,050,22,08,60,300,,10,63,095,,18,09,068,,8*60
$GPGSV,2,2,07,26,04,174,,27,78,119,,32,07,133,,8*5C
$GBGSV,1,1,01,24,21,291,18,5*45
$GPGGA,075123.00,4728.258241,N,00752.388571,E,1,04,1.2,433.8,M,48.0,M,,*68
$GAGGA,075123.00,4728.258241,N,00752.388571,E,1,00,1.2,433.8,M,48.0,M,,*7D
$GNGNS,075123.00,4728.258241,N,00752.388571,E,AANNNN,07,1.2,433.8,48.0,,,V*25
$GPVTG,,T,0.5,M,0.0,N,0.0,K,A*08
$GAVTG,,T,0.5,M,0.0,N,0.0,K,A*19
$GPRMC,075123.00,A,4728.258241,N,00752.388571,E,0.0,,080823,0.5,W,A,V*74
$GARMC,075123.00,A,4728.258241,N,00752.388571,E,0.0,,080823,0.5,W,A,V*65
$GPGSA,A,3,08,10,16,23,,,,,,,,,1.5,1.2,0.9,1*2E
$GAGSA,A,3,,,,,,,,,,,,,1.5,1.2,0.9,3*32
$GBGSA,A,1,,,,,,,,,,,,,,,,*20
$GQGSA,A,1,,,,,,,,,,,,,,,,*33
$GNGSA,A,3,08,10,16,23,,,,,,,,,1.5,1.2,0.9,1*30
$GNGSA,A,3,73,81,82,,,,,,,,,,1.5,1.2,0.9,2*3B
$GNGSA,A,3,,,,,,,,,,,,,1.5,1.2,0.9,3*3D
$GNGSA,A,3,,,,,,,,,,,,,1.5,1.2,0.9,4*3A
$GNGSA,A,3,,,,,,,,,,,,,1.5,1.2,0.9,5*3B
$GNGSA,A,3,,,,,,,,,,,,,1.5,1.2,0.9,6*38
$GPGSV,4,1,13,02,28,262,14,08,60,300,30,10,63,095,20,16,30,187,23,1*67
$GPGSV,4,2,13,21,37,264,12,23,35,050,28,32,07,133,16,07,04,286,,1*63
$GPGSV,4,3,13,15,03,025,,18,09,068,,26,04,174,,27,78,119,,1*6E
$GPGSV,4,4,13,30,03,312,,1*56
$GLGSV,3,1,09,82,53,310,29,73,19,327,24,80,36,267,15,79,14,213,11,1*7B
$GLGSV,3,2,09,81,54,052,18,66,42,097,,65,24,033,,83,15,281,,1*7F
$GLGSV,3,3,09,67,17,151,,1*43
$GBGSV,1,1,01,24,21,291,18,1*41
$GAGSV,1,1,01,19,07,139,,7*46
$GPGSV,2,1,07,23,35,050,21,08,60,300,,10,63,095,,18,09,068,,8*63
$GPGSV,2,2,07,26,04,174,,27,78,119,,32,07,133,,8*5C
$GBGSV,1,1,01,24,21,291,18,5*45
$GPGGA,075124.00,4728.258241,N,00752.388571,E,1,04,1.2,433.8,M,48.0,M,,*6F
$GAGGA,075124.00,4728.258241,N,00752.388571,E,1,00,1.2,433.8,M,48.0,M,,*7A
$GNGNS,075124.00,4728.258241,N,00752.388571,E,AANNNN,07,1.2,433.8,48.0,,,V*22
$GPVTG,,T,0.5,M,0.0,N,0.0,K,A*08
$GAVTG,,T,0.5,M,0.0,N,0.0,K,A*19
$GPRMC,075124.00,A,4728.258241,N,00752.388571,E,0.0,,080823,0.5,W,A,V*73
$GARMC,075124.00,A,4728.258241,N,00752.388571,E,0.0,,080823,0.5,W,A,V*62
$GPGSA,A,3,08,10,16,23,,,,,,,,,1.5,1.2,0.9,1*2E
$GAGSA,A,3,,,,,,,,,,,,,1.5,1.2,0.9,3*32
$GBGSA,A,1,,,,,,,,,,,,,,,,*20
$GQGSA,A,1,,,,,,,,,,,,,,,,*33
$GNGSA,A,3,08,10,16,23,,,,,,,,,1.5,1.2,0.9,1*30
$GNGSA,A,3,73,81,82,,,,,,,,,,1.5,1.2,0.9,2*3B
$GNGSA,A,3,,,,,,,,,,,,,1.5,1.2,0.9,3*3D
$GNGSA,A,3,,,,,,,,,,,,,1.5,1.2,0.9,4*3A
$GNGSA,A,3,,,,,,,,,,,,,1.5,1.2,0.9,5*3B
$GNGSA,A,3,,,,,,,,,,,,,1.5,1.2,0.9,6*38
$GPGSV,4,1,13,02,28,262,14,08,60,300,28,10,63,095,18,16,30,187,23,1*65
$GPGSV,4,2,13,21,37,264,12,23,35,050,28,32,07,133,16,07,04,286,,1*63
$GPGSV,4,3,13,15,03,025,,18,09,068,,26,04,174,,27,78,119,,1*6E
$GPGSV,4,4,13,30,03,312,,1*56
$GLGSV,3,1,09,82,53,310,30,73,19,327,24,80,36,267,15,79,14,213,11,1*73
$GLGSV,3,2,09,81,54,052,22,66,42,097,,65,24,033,,83,15,281,,1*76
$GLGSV,3,3,09,67,17,151,,1*43
$GBGSV,1,1,01,24,21,291,18,1*41
$GAGSV,1,1,01,19,07,139,,7*46
$GPGSV,2,1,07,23,35,050,23,08,60,300,,10,63,095,,18,09,068,,8*61
$GPGSV,2,2,07,26,04,174,,27,78,119,,32,07,133,,8*5C
$GBGSV,1,1,01,24,21,291,18,5*45
$GPGGA,075125.00,4728.258241,N,00752.388571,E,1,04,1.2,433.8,M,48.0,M,,*6E
$GAGGA,075125.00,4728.258241,N,00752.388571,E,1,00,1.2,433.8,M,48.0,M,,*7B
$GNGNS,075125.00,4728.258241,N,00752.388571,E,AANNNN,07,1.2,433.8,48.0,,,V*23
$GPVTG,,T,0.5,M,0.0,N,0.0,K,A*08
$GAVTG,,T,0.5,M,0.0,N,0.0,K,A*19
$GPRMC,075125.00,A,4728.258241,N,00752.388571,E,0.0,,080823,0.5,W,A,V*72
$GARMC,075125.00,A,4728.258241,N,00752.388571,E,0.0,,080823,0.5,W,A,V*63
$GPGSA,A,3,08,10,16,23,,,,,,,,,1.5,1.2,0.9,1*2E
$GAGSA,A,3,,,,,,,,,,,,,1.5,1.2,0.9,3*32
$GBGSA,A,1,,,,,,,,,,,,,,,,*20
$GQGSA,A,1,,,,,,,,,,,,,,,,*33
$GNGSA,A,3,08,10,16,23,,,,,,,,,1.5,1.2,0.9,1*30
$GNGSA,A,3,73,81,82,,,,,,,,,,1.5,1.2,0.9,2*3B
$GNGSA,A,3,,,,,,,,,,,,,1.5,1.2,0.9,3*3D
$GNGSA,A,3,,,,,,,,,,,,,1.5,1.2,0.9,4*3A
$GNGSA,A,3,,,,,,,,,,,,,1.5,1.2,0.9,5*3B
$GNGSA,A,3,,,,,,,,,,,,,1.5,1.2,0.9,6*38
$GPGSV,4,1,13,02,28,262,16,08,60,300,28,10,63,095,18,16,30,187,22,1*66
$GPGSV,4,2,13,18,09,068,16,21,37,264,12,23,35,050,28,32,07,133,16,1*65
$GPGSV,4,3,13,07,04,286,,15,03,025,,26,04,174,,27,78,119,,1*6F
$GPGSV,4,4,13,30,03,312,,1*56
$GLGSV,3,1,09,82,53,310,30,73,19,327,23,80,36,267,15,79,14,213,11,1*74
$GLGSV,3,2,09,81,54,052,23,66,42,097,,65,24,033,,83,15,281,,1*77
$GLGSV,3,3,09,67,17,151,,1*43
$GBGSV,1,1,01,24,21,291,18,1*41
$GAGSV,1,1,01,19,07,139,,7*46
$GPGSV,2,1,07,23,35,050,23,08,60,300,,10,63,095,,18,09,068,,8*61
$GPGSV,2,2,07,26,04,174,,27,78,119,,32,07,133,,8*5C
$GBGSV,1,1,01,24,21,291,18,5*45
$GPGGA,075126.00,4728.258241,N,00752.388571,E,1,06,1.0,433.8,M,48.0,M,,*6D
$GAGGA,075126.00,4728.258241,N,00752.388571,E,1,00,1.0,433.8,M,48.0,M,,*7A
$GNGNS,075126.00,4728.258241,N,00752.388571,E,AANNNN,09,1.0,433.8,48.0,,,V*2C
$GPVTG,,T,0.5,M,0.0,N,0.0,K,A*08
$GAVTG,,T,0.5,M,0.0,N,0.0,K,A*19
$GPRMC,075126.00,A,4728.258241,N,00752.388571,E,0.0,,080823,0.5,W,A,V*71
$GARMC,075126.00,A,4728.258241,N,00752.388571,E,0.0,,080823,0.5,W,A,V*60
$GPGSA,A,3,02,08,10,16,18,23,,,,,,,1.3,1.0,0.8,1*20
$GAGSA,A,3,,,,,,,,,,,,,1.3,1.0,0.8,3*37
$GBGSA,A,1,,,,,,,,,,,,,,,,*20
$GQGSA,A,1,,,,,,,,,,,,,,,,*33
$GNGSA,A,3,02,08,10,16,18,23,,,,,,,1.3,1.0,0.8,1*3E
$GNGSA,A,3,73,81,82,,,,,,,,,,1.3,1.0,0.8,2*3E
$GNGSA,A,3,,,,,,,,,,,,,1.3,1.0,0.8,3*38
$GNGSA,A,3,,,,,,,,,,,,,1.3,1.0,0.8,4*3F
$GNGSA,A,3,,,,,,,,,,,,,1.3,1.0,0.8,5*3E
$GNGSA,A,3,,,,,,,,,,,,,1.3,1.0,0.8,6*3D
$GPGSV,4,1,13,02,28,262,16,08,60,300,29,10,63,095,18,16,30,187,22,1*67
$GPGSV,4,2,13,18,09,068,16,21,37,264,12,23,35,050,28,32,07,133,16,1*65
$GPGSV,4,3,13,07,04,286,,15,03,025,,26,04,174,,27,78,119,,1*6F
$GPGSV,4,4,13,30,03,312,,1*56
$GLGSV,3,1,09,82,53,310,30,73,19,327,23,80,36,267,15,79,14,213,11,1*74
$GLGSV,3,2,09,81,54,052,23,66,42,097,,65,24,033,,83,15,281,,1*77
$GLGSV,3,3,09,67,17,151,,1*43
$GBGSV,1,1,01,24,21,291,18,1*41
$GAGSV,1,1,01,19,07,139,,7*46
$GPGSV,2,1,07,23,35,050,21,08,60,300,,10,63,095,,18,09,068,,8*63
$GPGSV,2,2,07,26,04,174,,27,78,119,,32,07,133,,8*5C
$GBGSV,1,1,01,24,21,291,19,5*44
$GPGGA,075127.00,4728.258241,N,00752.388571,E,1,06,1.0,433.8,M,48.0,M,,*6C
$GAGGA,075127.00,4728.258241,N,00752.388571,E,1,00,1.0,433.8,M,48.0,M,,*7B
$GNGNS,075127.00,4728.258241,N,00752.388571,E,AANNNN,09,1.0,433.8,48.0,,,V*2D
$GPVTG,,T,0.5,M,0.0,N,0.0,K,A*08
$GAVTG,,T,0.5,M,0.0,N,0.0,K,A*19
$GPRMC,075127.00,A,4728.258241,N,00752.388571,E,0.0,,080823,0.5,W,A,V*70
$GARMC,075127.00,A,4728.258241,N,00752.388571,E,0.0,,080823,0.5,W,A,V*61
$GPGSA,A,3,02,08,10,16,18,23,,,,,,,1.3,1.0,0.8,1*20
$GAGSA,A,3,,,,,,,,,,,,,1.3,1.0,0.8,3*37
$GBGSA,A,1,,,,,,,,,,,,,,,,*20
$GQGSA,A,1,,,,,,,,,,,,,,,,*33
$GNGSA,A,3,02,08,10,16,18,23,,,,,,,1.3,1.0,0.8,1*3E
$GNGSA,A,3,73,81,82,,,,,,,,,,1.3,1.0,0.8,2*3E
$GNGSA,A,3,,,,,,,,,,,,,1.3,1.0,0.8,3*38
$GNGSA,A,3,,,,,,,,,,,,,1.3,1.0,0.8,4*3F
$GNGSA,A,3,,,,,,,,,,,,,1.3,1.0,0.8,5*3E
$GNGSA,A,3,,,,,,,,,,,,,1.3,1.0,0.8,6*3D
$GPGSV,4,1,13,02,28,262,16,08,60,300,29,10,63,095,18,16,30,187,21,1*64
$GPGSV,4,2,13,18,09,068,16,21,37,264,12,23,35,050,28,32,07,133,13,1*60
$GPGSV,4,3,13,07,04,286,,15,03,025,,26,04,174,,27,78,119,,1*6F
$GPGSV,4,4,13,30,03,312,,1*56
$GLGSV,3,1,09,82,53,310,30,73,19,327,24,80,36,267,15,79,14,213,11,1*73
$GLGSV,3,2,09,81,54,052,22,66,42,097,,65,24,033,,83,15,281,,1*76
$GLGSV,3,3,09,67,17,151,,1*43
$GBGSV,1,1,01,24,21,291,18,1*41
$GAGSV,1,1,01,19,07,139,,7*46
$GPGSV,2,1,07,23,35,050,22,08,60,300,,10,63,095,,18,09,068,,8*60
$GPGSV,2,2,07,26,04,174,,27,78,119,,32,07,133,,8*5C
$GBGSV,1,1,01,24,21,291,19,5*44
$GPGGA,075128.00,4728.258241,N,00752.388571,E,1,06,1.0,433.8,M,48.0,M,,*63
$GAGGA,075128.00,4728.258241,N,00752.388571,E,1,00,1.0,433.8,M,48.0,M,,*74
$GNGNS,075128.00,4728.258241,N,00752.388571,E,AANNNN,09,1.0,433.8,48.0,,,V*22
$GPVTG,,T,0.5,M,0.0,N,0.0,K,A*08
$GAVTG,,T,0.5,M,0.0,N,0.0,K,A*19
$GPRMC,075128.00,A,4728.258241,N,00752.388571,E,0.0,,080823,0.5,W,A,V*7F
$GARMC,075128.00,A,4728.258241,N,00752.388571,E,0.0,,080823,0.5,W,A,V*6E
$GPGSA,A,3,02,08,10,16,18,23,,,,,,,1.3,1.0,0.8,1*20
$GAGSA,A,3,,,,,,,,,,,,,1.3,1.0,0.8,3*37
$GBGSA,A,1,,,,,,,,,,,,,,,,*20
$GQGSA,A,1,,,,,,,,,,,,,,,,*33
$GNGSA,A,3,02,08,10,16,18,23,,,,,,,1.3,1.0,0.8,1*3E
$GNGSA,A,3,73,81,82,,,,,,,,,,1.3,1.0,0.8,2*3E
$GNGSA,A,3,,,,,,,,,,,,,1.3,1.0,0.8,3*38
$GNGSA,A,3,,,,,,,,,,,,,1.3,1.0,0.8,4*3F
$GNGSA,A,3,,,,,,,,,,,,,1.3,1.0,0.8,5*3E
$GNGSA,A,3,,,,,,,,,,,,,1.3,1.0,0.8,6*3D
$GPGSV,4,1,13,02,28,262,16,08,60,300,28,10,63,095,18,16,30,187,21,1*65
$GPGSV,4,2,13,18,09,068,16,21,37,264,12,23,35,050,29,32,07,133,13,1*61
$GPGSV,4,3,13,07,04,286,,15,03,025,,26,04,174,,27,78,119,,1*6F
$GPGSV,4,4,13,30,03,312,,1*56
$GLGSV,3,1,09,82,53,310,30,73,19,327,25,80,36,267,15,79,14,213,11,1*72
$GLGSV,3,2,09,81,54,052,22,66,42,097,,65,24,033,,83,15,281,,1*76
$GLGSV,3,3,09,67,17,151,,1*43
$GBGSV,1,1,01,24,21,291,18,1*41
$GAGSV,1,1,01,19,07,139,,7*46
$GPGSV,2,1,06,23,35,050,21,10,63,095,,18,09,068,,26,04,174,,8*6D
$GPGSV,2,2,06,27,78,119,,32,07,133,,8*6F
$GBGSV,1,1,01,24,21,291,19,5*44
$GPGGA,075129.00,4728.258241,N,00752.388571,E,1,06,1.0,433.8,M,48.0,M,,*62
$GAGGA,075129.00,4728.258241,N,00752.388571,E,1,00,1.0,433.8,M,48.0,M,,*75
$GNGNS,075129.00,4728.258241,N,00752.388571,E,AANNNN,09,1.0,433.8,48.0,,,V*23
$GPVTG,,T,0.5,M,0.0,N,0.0,K,A*08
$GAVTG,,T,0.5,M,0.0,N,0.0,K,A*19
$GPRMC,075129.00,A,4728.258241,N,00752.388571,E,0.0,,080823,0.5,W,A,V*7E
$GARMC,075129.00,A,4728.258241,N,00752.388571,E,0.0,,080823,0.5,W,A,V*6F
$GPGSA,A,3,02,08,10,16,18,23,,,,,,,1.3,1.0,0.8,1*20
$GAGSA,A,3,,,,,,,,,,,,,1.3,1.0,0.8,3*37
$GBGSA,A,1,,,,,,,,,,,,,,,,*20
$GQGSA,A,1,,,,,,,,,,,,,,,,*33
$GNGSA,A,3,02,08,10,16,18,23,,,,,,,1.3,1.0,0.8,1*3E
$GNGSA,A,3,73,81,82,,,,,,,,,,1.3,1.0,0.8,2*3E
$GNGSA,A,3,,,,,,,,,,,,,1.3,1.0,0.8,3*38
$GNGSA,A,3,,,,,,,,,,,,,1.3,1.0,0.8,4*3F
$GNGSA,A,3,,,,,,,,,,,,,1.3,1.0,0.8,5*3E
$GNGSA,A,3,,,,,,,,,,,,,1.3,1.0,0.8,6*3D
$GPGSV,4,1,13,02,28,262,18,08,60,300,29,10,63,095,18,16,30,187,21,1*6A
$GPGSV,4,2,13,18,09,068,16,21,37,264,12,23,35,050,29,32,07,133,13,1*61
$GPGSV,4,3,13,07,04,286,,15,03,025,,26,04,174,,27,78,119,,1*6F
$GPGSV,4,4,13,30,03,312,,1*56
$GLGSV,3,1,09,82,53,310,29,73,19,327,23,80,36,267,15,79,14,213,11,1*7C
$GLGSV,3,2,09,81,54,052,21,66,42,097,,65,24,033,,83,15,281,,1*75
$GLGSV,3,3,09,67,17,151,,1*43
$GBGSV,1,1,01,24,21,291,17,1*4E
$GAGSV,1,1,01,19,07,139,,7*46
$GPGSV,2,1,06,23,35,050,24,08,60,300,,10,63,095,,18,09,068,,8*67
$GPGSV,2,2,06,26,04,174,,27,78,119,,8*6A
$GBGSV,1,1,01,24,21,291,19,5*44
$GPGGA,075130.00,4728.258241,N,00752.388572,E,1,06,1.0,433.8,M,48.0,M,,*69
$GAGGA,075130.00,4728.258241,N,00752.388572,E,1,00,1.0,433.8,M,48.0,M,,*7E
$GNGNS,075130.00,4728.258241,N,00752.388572,E,AANNNN,09,1.0,433.8,48.0,,,V*28
$GPVTG,,T,0.5,M,0.0,N,0.0,K,A*08
$GAVTG,,T,0.5,M,0.0,N,0.0,K,A*19
$GPRMC,075130.00,A,4728.258241,N,00752.388572,E,0.0,,080823,0.5,W,A,V*75
$GARMC,075130.00,A,4728.258241,N,00752.388572,E,0.0,,080823,0.5,W,A,V*64
$GPGSA,A,3,02,08,10,16,18,23,,,,,,,1.3,1.0,0.8,1*20
$GAGSA,A,3,,,,,,,,,,,,,1.3,1.0,0.8,3*37
$GBGSA,A,1,,,,,,,,,,,,,,,,*20
$GQGSA,A,1,,,,,,,,,,,,,,,,*33
$GNGSA,A,3,02,08,10,16,18,23,,,,,,,1.3,1.0,0.8,1*3E
$GNGSA,A,3,73,81,82,,,,,,,,,,1.3,1.0,0.8,2*3E
$GNGSA,A,3,,,,,,,,,,,,,1.3,1.0,0.8,3*38
$GNGSA,A,3,,,,,,,,,,,,,1.3,1.0,0.8,4*3F
$GNGSA,A,3,,,,,,,,,,,,,1.3,1.0,0.8,5*3E
$GNGSA,A,3,,,,,,,,,,,,,1.3,1.0,0.8,6*3D
$PTLTGSM,LTE,-71*33
$PTLTIO,1,0*1b